{
  "nodes": [
    {
      "id": "N001",
      "lat": 24.4361,
      "lng": 118.1021,
      "name": "厦门大学思明校区东苑餐厅",
      "campus": "思明"
    },
    {
      "id": "N002",
      "lat": 24.4357,
      "lng": 118.1022,
      "name": "厦门大学思明校区芙蓉餐厅",
      "campus": "思明"
    },
    {
      "id": "N003",
      "lat": 24.4356,
      "lng": 118.1022,
      "name": "幸运咖(厦门大学思明校区店)",
      "campus": "思明"
    },
    {
      "id": "N004",
      "lat": 24.4354,
      "lng": 118.1017,
      "name": "钟明英·妈妈的烤包(厦大店)",
      "campus": "思明"
    },
    {
      "id": "N005",
      "lat": 24.4354,
      "lng": 118.1016,
      "name": "古茗(厦大芙蓉餐厅店)",
      "campus": "思明"
    },
    {
      "id": "N006",
      "lat": 24.4354,
      "lng": 118.1019,
      "name": "库迪咖啡(厦门大学思明校区店)",
      "campus": "思明"
    },
    {
      "id": "N007",
      "lat": 24.4361,
      "lng": 118.1026,
      "name": "1921Cafe",
      "campus": "思明"
    },
    {
      "id": "N008",
      "lat": 24.4357,
      "lng": 118.1031,
      "name": "厦大会务服务中心",
      "campus": "思明"
    },
    {
      "id": "N009",
      "lat": 24.4355,
      "lng": 118.1032,
      "name": "厦门大学芙蓉惜夕湾隧道咖啡厅",
      "campus": "思明"
    },
    {
      "id": "N010",
      "lat": 24.4358,
      "lng": 118.1,
      "name": "赶海茶汐(厦大店)",
      "campus": "思明"
    },
    {
      "id": "N011",
      "lat": 24.4347,
      "lng": 118.1003,
      "name": "顺丰速运(南光餐厅店)",
      "campus": "思明"
    },
    {
      "id": "N012",
      "lat": 24.435,
      "lng": 118.0996,
      "name": "厦门大学思明校区南光餐厅",
      "campus": "思明"
    },
    {
      "id": "N013",
      "lat": 24.4344,
      "lng": 118.1,
      "name": "热氣饼店(厦门大学店)",
      "campus": "思明"
    },
    {
      "id": "N014",
      "lat": 24.4382,
      "lng": 118.1005,
      "name": "厦门大学勤业烘焙坊",
      "campus": "思明"
    },
    {
      "id": "N015",
      "lat": 24.4345,
      "lng": 118.1037,
      "name": "厦门大学思明校区石井学生公寓",
      "campus": "思明"
    },
    {
      "id": "N016",
      "lat": 24.4382,
      "lng": 118.1003,
      "name": "厦门大学思明校区勤业餐厅",
      "campus": "思明"
    },
    {
      "id": "N017",
      "lat": 24.4342,
      "lng": 118.0999,
      "name": "肯德基(南光路店)",
      "campus": "思明"
    },
    {
      "id": "N018",
      "lat": 24.4383,
      "lng": 118.1001,
      "name": "厦门大学敬贤教工宿舍6号楼",
      "campus": "思明"
    },
    {
      "id": "N019",
      "lat": 24.4331,
      "lng": 118.1024,
      "name": "瑞幸咖啡(厦门大学南门白城沙滩店)",
      "campus": "思明"
    },
    {
      "id": "N020",
      "lat": 24.4383,
      "lng": 118.0987,
      "name": "厦门大学国际学术交流中心中餐厅",
      "campus": "思明"
    },
    {
      "id": "N021",
      "lat": 24.4383,
      "lng": 118.0985,
      "name": "库迪咖啡(厦门大学思明校区逸夫楼店)",
      "campus": "思明"
    },
    {
      "id": "N022",
      "lat": 24.4384,
      "lng": 118.0986,
      "name": "厦门大学接待服务中心咖啡厅",
      "campus": "思明"
    },
    {
      "id": "N023",
      "lat": 24.4398,
      "lng": 118.1018,
      "name": "厦门大学思明校区凌云学生公寓",
      "campus": "思明"
    },
    {
      "id": "N024",
      "lat": 24.4359,
      "lng": 118.0975,
      "name": "科艺咖啡厅",
      "campus": "思明"
    },
    {
      "id": "N025",
      "lat": 24.439,
      "lng": 118.0989,
      "name": "厦门大学思明校区丰庭学生公寓",
      "campus": "思明"
    },
    {
      "id": "N026",
      "lat": 24.4339,
      "lng": 118.1056,
      "name": "厦门大学思明校区海滨博士后公寓",
      "campus": "思明"
    },
    {
      "id": "N027",
      "lat": 24.4372,
      "lng": 118.1061,
      "name": "厦门大学休闲茶座",
      "campus": "思明"
    },
    {
      "id": "N028",
      "lat": 24.4352,
      "lng": 118.0961,
      "name": "名创优品(福建厦门大学中心店)",
      "campus": "思明"
    },
    {
      "id": "N029",
      "lat": 24.4322,
      "lng": 118.1065,
      "name": "厦门大学思明校区海滨食堂",
      "campus": "思明"
    },
    {
      "id": "N030",
      "lat": 24.4311,
      "lng": 118.1051,
      "name": "luckin coffee 瑞幸咖啡(曾厝垵店)",
      "campus": "思明"
    },
    {
      "id": "N031",
      "lat": 24.4347,
      "lng": 118.0953,
      "name": "蛙喔牛蛙·烧烤·烤鱼(厦大访客中心蛙喔)",
      "campus": "思明"
    },
    {
      "id": "N032",
      "lat": 24.4346,
      "lng": 118.0953,
      "name": "1点点(海洋新村店)",
      "campus": "思明"
    },
    {
      "id": "N033",
      "lat": 24.4409,
      "lng": 118.0977,
      "name": "南普陀素面馆",
      "campus": "思明"
    },
    {
      "id": "N034",
      "lat": 24.4345,
      "lng": 118.0953,
      "name": "陶郷台式小火锅(厦门大学访客中心店)",
      "campus": "思明"
    },
    {
      "id": "N035",
      "lat": 24.441,
      "lng": 118.0977,
      "name": "菩提茶饮",
      "campus": "思明"
    },
    {
      "id": "N036",
      "lat": 24.4362,
      "lng": 118.0949,
      "name": "枝稻小食堂",
      "campus": "思明"
    },
    {
      "id": "N037",
      "lat": 24.4349,
      "lng": 118.0949,
      "name": "茶山派(厦大访客中心店)",
      "campus": "思明"
    },
    {
      "id": "N038",
      "lat": 24.4343,
      "lng": 118.0949,
      "name": "阁客下饭小火锅",
      "campus": "思明"
    },
    {
      "id": "N039",
      "lat": 24.4343,
      "lng": 118.0948,
      "name": "DQ(厦门大学访客中心店)",
      "campus": "思明"
    },
    {
      "id": "N040",
      "lat": 24.4345,
      "lng": 118.0947,
      "name": "八合里潮汕鲜牛肉火锅(厦大店)",
      "campus": "思明"
    },
    {
      "id": "N041",
      "lat": 24.4346,
      "lng": 118.0947,
      "name": "茶百道(厦门大学访客中心店)",
      "campus": "思明"
    },
    {
      "id": "N042",
      "lat": 24.435,
      "lng": 118.0945,
      "name": "星巴克臻选(厦门厦大访客中心分店)",
      "campus": "思明"
    },
    {
      "id": "N043",
      "lat": 24.4361,
      "lng": 118.0944,
      "name": "雷姐老厦门特色小吃店",
      "campus": "思明"
    },
    {
      "id": "N044",
      "lat": 24.4398,
      "lng": 118.0955,
      "name": "库迪咖啡(厦大学术交流中心店)",
      "campus": "思明"
    },
    {
      "id": "N045",
      "lat": 24.441,
      "lng": 118.0966,
      "name": "南普陀寺-斋堂",
      "campus": "思明"
    },
    {
      "id": "N046",
      "lat": 24.4345,
      "lng": 118.0944,
      "name": "金记广味烧腊店(厦大店)",
      "campus": "思明"
    },
    {
      "id": "N047",
      "lat": 24.4302,
      "lng": 118.1056,
      "name": "鑫鑫落日海景海鲜餐厅(胡里山炮台地标店)",
      "campus": "思明"
    },
    {
      "id": "N048",
      "lat": 24.4301,
      "lng": 118.1055,
      "name": "Sea U海云咖啡厅",
      "campus": "思明"
    },
    {
      "id": "N049",
      "lat": 24.43,
      "lng": 118.1055,
      "name": "台湾美食城",
      "campus": "思明"
    },
    {
      "id": "N050",
      "lat": 24.4359,
      "lng": 118.0939,
      "name": "想木目心墨西哥餐厅",
      "campus": "思明"
    },
    {
      "id": "N051",
      "lat": 24.4362,
      "lng": 118.0938,
      "name": "超吉丼饭",
      "campus": "思明"
    },
    {
      "id": "N052",
      "lat": 24.4379,
      "lng": 118.0931,
      "name": "瑞幸咖啡(厦门大学西门演武1658店)",
      "campus": "思明"
    },
    {
      "id": "N053",
      "lat": 24.4394,
      "lng": 118.0929,
      "name": "邮局咖啡(厦大店)",
      "campus": "思明"
    },
    {
      "id": "N054",
      "lat": 24.4406,
      "lng": 118.0931,
      "name": "南华柒号",
      "campus": "思明"
    },
    {
      "id": "N055",
      "lat": 24.4403,
      "lng": 118.0928,
      "name": "小山椿下",
      "campus": "思明"
    },
    {
      "id": "N056",
      "lat": 24.4279,
      "lng": 118.107,
      "name": "几朵咖啡",
      "campus": "思明"
    },
    {
      "id": "N057",
      "lat": 24.4373,
      "lng": 118.0911,
      "name": "SAMPLE(厦大店)",
      "campus": "思明"
    },
    {
      "id": "N058",
      "lat": 24.4427,
      "lng": 118.0932,
      "name": "岚画里Coffee",
      "campus": "思明"
    },
    {
      "id": "N059",
      "lat": 24.4467,
      "lng": 118.101,
      "name": "拥木咖啡(万石植物园店)",
      "campus": "思明"
    },
    {
      "id": "N060",
      "lat": 24.4365,
      "lng": 118.0898,
      "name": "库迪咖啡(沙坡尾大学路店)",
      "campus": "思明"
    },
    {
      "id": "N061",
      "lat": 24.4365,
      "lng": 118.1138,
      "name": "自由灵魂咖啡·日咖夜酒",
      "campus": "思明"
    },
    {
      "id": "N062",
      "lat": 24.4364,
      "lng": 118.114,
      "name": "若小猫咖啡馆",
      "campus": "思明"
    },
    {
      "id": "N063",
      "lat": 24.4353,
      "lng": 118.0893,
      "name": "瑞幸咖啡(世茂海峡店)",
      "campus": "思明"
    },
    {
      "id": "N064",
      "lat": 24.4356,
      "lng": 118.0892,
      "name": "Manner Coffee(厦门海峡世茂广场店)",
      "campus": "思明"
    },
    {
      "id": "N065",
      "lat": 24.4362,
      "lng": 118.0891,
      "name": "瑞幸咖啡(厦门双子塔大师店)",
      "campus": "思明"
    },
    {
      "id": "N066",
      "lat": 24.4412,
      "lng": 118.0903,
      "name": "lanlancafe(海洋花园店)",
      "campus": "思明"
    },
    {
      "id": "N067",
      "lat": 24.4369,
      "lng": 118.089,
      "name": "猫住咖啡·猫咖(大学路店)",
      "campus": "思明"
    },
    {
      "id": "N068",
      "lat": 24.438,
      "lng": 118.0891,
      "name": "Le Cafe Mião猫咖·肥猫俱乐部(沙坡尾店)",
      "campus": "思明"
    },
    {
      "id": "N069",
      "lat": 24.436,
      "lng": 118.0888,
      "name": "星巴克(厦门演武路分店)",
      "campus": "思明"
    },
    {
      "id": "N070",
      "lat": 24.4381,
      "lng": 118.0889,
      "name": "赵小姐的店(沙坡尾店)",
      "campus": "思明"
    },
    {
      "id": "N071",
      "lat": 24.436,
      "lng": 118.0886,
      "name": "和猫说海景猫咖馆",
      "campus": "思明"
    },
    {
      "id": "N072",
      "lat": 24.4361,
      "lng": 118.0884,
      "name": "天空餐厅(世茂Emall店)",
      "campus": "思明"
    },
    {
      "id": "N073",
      "lat": 24.4362,
      "lng": 118.0883,
      "name": "云上简里|海景咖啡厅(双子塔店)",
      "campus": "思明"
    },
    {
      "id": "N074",
      "lat": 24.4322,
      "lng": 118.115,
      "name": "星巴克(厦门思明软件园一期店)",
      "campus": "思明"
    },
    {
      "id": "N075",
      "lat": 24.4328,
      "lng": 118.1153,
      "name": "瑞幸咖啡(软件园一期北区店)",
      "campus": "思明"
    },
    {
      "id": "N076",
      "lat": 24.4341,
      "lng": 118.1157,
      "name": "好好咖啡(曾厝垵店)",
      "campus": "思明"
    },
    {
      "id": "N077",
      "lat": 24.4408,
      "lng": 118.0884,
      "name": "小河马中古百货咖啡馆",
      "campus": "思明"
    },
    {
      "id": "N078",
      "lat": 24.4381,
      "lng": 118.0875,
      "name": "咖飛狮(沙坡尾艺术西区店)",
      "campus": "思明"
    },
    {
      "id": "N079",
      "lat": 24.4314,
      "lng": 118.1153,
      "name": "Nuts Coffee坚果咖啡",
      "campus": "思明"
    },
    {
      "id": "N080",
      "lat": 24.4397,
      "lng": 118.0875,
      "name": "瑞幸咖啡(沙坡尾店)",
      "campus": "思明"
    },
    {
      "id": "N081",
      "lat": 24.4429,
      "lng": 118.089,
      "name": "NOWWA挪瓦咖啡(见福福建博物馆店)",
      "campus": "思明"
    },
    {
      "id": "N082",
      "lat": 24.4378,
      "lng": 118.0931,
      "name": "小厝里砂锅焗海鲜(厦大店)",
      "campus": "思明"
    },
    {
      "id": "N083",
      "lat": 24.4379,
      "lng": 118.093,
      "name": "堂宴·老厦门私房菜(厦大店)",
      "campus": "思明"
    },
    {
      "id": "N084",
      "lat": 24.4372,
      "lng": 118.0928,
      "name": "金海湾·姜母鸭·海鲜餐厅(厦门大学店)",
      "campus": "思明"
    },
    {
      "id": "N085",
      "lat": 24.4396,
      "lng": 118.0928,
      "name": "回来吧特色餐厅(厦大店)",
      "campus": "思明"
    },
    {
      "id": "N086",
      "lat": 24.439,
      "lng": 118.0924,
      "name": "妞妞餐厅老厦门特色菜",
      "campus": "思明"
    },
    {
      "id": "N087",
      "lat": 24.4353,
      "lng": 118.0894,
      "name": "38号码头餐厅(厦门康莱德酒店)",
      "campus": "思明"
    },
    {
      "id": "N088",
      "lat": 24.4352,
      "lng": 118.0893,
      "name": "厦门康莱德酒店鹭城轩中餐厅",
      "campus": "思明"
    },
    {
      "id": "N089",
      "lat": 24.4353,
      "lng": 118.0892,
      "name": "康莱德酒店·COAST海岸酒吧&餐厅",
      "campus": "思明"
    },
    {
      "id": "N090",
      "lat": 24.4357,
      "lng": 118.0885,
      "name": "太哼冰室(厦门世茂Emall店)",
      "campus": "思明"
    },
    {
      "id": "N091",
      "lat": 24.4387,
      "lng": 118.0887,
      "name": "芋包嫂",
      "campus": "思明"
    },
    {
      "id": "N092",
      "lat": 24.4356,
      "lng": 118.0883,
      "name": "迦兰·泰式料理(世茂Emall店)",
      "campus": "思明"
    },
    {
      "id": "N093",
      "lat": 24.4418,
      "lng": 118.0896,
      "name": "食客家自选餐厅",
      "campus": "思明"
    },
    {
      "id": "N094",
      "lat": 24.4412,
      "lng": 118.0889,
      "name": "渔家海鲜舫(蜂巢山路)",
      "campus": "思明"
    },
    {
      "id": "N095",
      "lat": 24.438,
      "lng": 118.1155,
      "name": "海韵一期餐厅(厦大学生公寓店)",
      "campus": "思明"
    },
    {
      "id": "N096",
      "lat": 24.4337,
      "lng": 118.1155,
      "name": "厦门小吃福隆餐厅沙茶面(西里小区店)",
      "campus": "思明"
    },
    {
      "id": "N097",
      "lat": 24.4305,
      "lng": 118.115,
      "name": "海韵园餐厅(创新大厦C区店)",
      "campus": "思明"
    },
    {
      "id": "N098",
      "lat": 24.4373,
      "lng": 118.0879,
      "name": "阿里元·海鲜闽菜(厦大店)(暂停营业)",
      "campus": "思明"
    },
    {
      "id": "N099",
      "lat": 24.437,
      "lng": 118.0896,
      "name": "食光屋·深夜食堂",
      "campus": "思明"
    },
    {
      "id": "N100",
      "lat": 24.4371,
      "lng": 118.0894,
      "name": "春荷小食堂",
      "campus": "思明"
    },
    {
      "id": "N101",
      "lat": 24.4382,
      "lng": 118.089,
      "name": "肉食饭堂",
      "campus": "思明"
    },
    {
      "id": "N102",
      "lat": 24.4386,
      "lng": 118.0967,
      "name": "厦门大学思明校区图书馆",
      "campus": "思明"
    },
    {
      "id": "N103",
      "lat": 24.4318,
      "lng": 118.108,
      "name": "厦门大学思明校区图书馆法学分馆",
      "campus": "思明"
    },
    {
      "id": "N104",
      "lat": 24.4372,
      "lng": 118.1159,
      "name": "厦门大学图书馆(海韵学生公寓分馆)",
      "campus": "思明"
    },
    {
      "id": "N100",
      "lat": 24.5967,
      "lng": 118.3038,
      "name": "李厝埔餐厅",
      "campus": "翔安"
    },
    {
      "id": "N101",
      "lat": 24.6082,
      "lng": 118.3028,
      "name": "厦门大学翔安校区丰庭餐厅",
      "campus": "翔安"
    },
    {
      "id": "N102",
      "lat": 24.6021,
      "lng": 118.292,
      "name": "幸福人家餐厅",
      "campus": "翔安"
    },
    {
      "id": "N103",
      "lat": 24.6046,
      "lng": 118.2985,
      "name": "咖啡书吧",
      "campus": "翔安"
    },
    {
      "id": "N104",
      "lat": 24.5958,
      "lng": 118.3054,
      "name": "烟酒茶",
      "campus": "翔安"
    },
    {
      "id": "N105",
      "lat": 24.6036,
      "lng": 118.3004,
      "name": "厦门大学信息学院正信楼",
      "campus": "翔安"
    },
    {
      "id": "N106",
      "lat": 24.6046,
      "lng": 118.301,
      "name": "厦门大学翔安校区益海嘉里楼",
      "campus": "翔安"
    },
    {
      "id": "N107",
      "lat": 24.6057,
      "lng": 118.3015,
      "name": "厦门大学翔安校区信息学院5号楼智信楼",
      "campus": "翔安"
    },
    {
      "id": "N108",
      "lat": 24.6053,
      "lng": 118.3051,
      "name": "厦门大学翔安校区医学院",
      "campus": "翔安"
    },
    {
      "id": "N109",
      "lat": 24.6041,
      "lng": 118.3071,
      "name": "厦门大学翔安校区生命科学学院",
      "campus": "翔安"
    },
    {
      "id": "N110",
      "lat": 24.6061,
      "lng": 118.3066,
      "name": "厦门大学翔安校区公共卫生学院",
      "campus": "翔安"
    },
    {
      "id": "N111",
      "lat": 24.6028,
      "lng": 118.3055,
      "name": "厦门大学国际学术交流中心(翔安校区店)",
      "campus": "翔安"
    },
    {
      "id": "N112",
      "lat": 24.6031,
      "lng": 118.3059,
      "name": "厦门大学国际学术交流中心翔安校区店大堂",
      "campus": "翔安"
    },
    {
      "id": "N113",
      "lat": 24.6052,
      "lng": 118.3067,
      "name": "厦门大学翔安校区国家传染病诊断试剂与疫苗工程技术研究中心",
      "campus": "翔安"
    },
    {
      "id": "N114",
      "lat": 24.6069,
      "lng": 118.3064,
      "name": "厦门大学翔安校区分子影像暨转化医学研究中心",
      "campus": "翔安"
    },
    {
      "id": "N115",
      "lat": 24.607,
      "lng": 118.3065,
      "name": "厦门大学公共卫生学院分子影像中心",
      "campus": "翔安"
    },
    {
      "id": "N116",
      "lat": 24.593,
      "lng": 118.302,
      "name": "嘉庚创新实验室智慧储能大型科研基础设施项目",
      "campus": "翔安"
    },
    {
      "id": "N117",
      "lat": 24.593,
      "lng": 118.3014,
      "name": "中铁一局嘉庚创新实验室大型科研基础设施项目基坑支护工程",
      "campus": "翔安"
    },
    {
      "id": "N118",
      "lat": 24.6061,
      "lng": 118.3077,
      "name": "细胞应激生物学国家重点实验室",
      "campus": "翔安"
    },
    {
      "id": "N119",
      "lat": 24.609,
      "lng": 118.3041,
      "name": "厦门大学翔安校区笃行公寓",
      "campus": "翔安"
    },
    {
      "id": "N120",
      "lat": 24.5992,
      "lng": 118.3048,
      "name": "思家公寓",
      "campus": "翔安"
    },
    {
      "id": "N121",
      "lat": 24.5971,
      "lng": 118.304,
      "name": "厦门青藤酒店公寓(厦大店)",
      "campus": "翔安"
    },
    {
      "id": "N122",
      "lat": 24.5967,
      "lng": 118.3046,
      "name": "厦门57号公寓",
      "campus": "翔安"
    },
    {
      "id": "N123",
      "lat": 24.5994,
      "lng": 118.307,
      "name": "暖居公寓",
      "campus": "翔安"
    },
    {
      "id": "N124",
      "lat": 24.6001,
      "lng": 118.3078,
      "name": "都懂公寓",
      "campus": "翔安"
    },
    {
      "id": "N125",
      "lat": 24.5997,
      "lng": 118.3078,
      "name": "祺昕公寓",
      "campus": "翔安"
    },
    {
      "id": "N126",
      "lat": 24.6004,
      "lng": 118.3089,
      "name": "美佳溪畔居公寓",
      "campus": "翔安"
    },
    {
      "id": "N127",
      "lat": 24.6003,
      "lng": 118.309,
      "name": "茹家公寓",
      "campus": "翔安"
    },
    {
      "id": "N128",
      "lat": 24.6,
      "lng": 118.3095,
      "name": "清河之家公寓",
      "campus": "翔安"
    },
    {
      "id": "N129",
      "lat": 24.6004,
      "lng": 118.3098,
      "name": "鸿门公寓",
      "campus": "翔安"
    },
    {
      "id": "N130",
      "lat": 24.601,
      "lng": 118.31,
      "name": "翔安南路鑫源公寓",
      "campus": "翔安"
    },
    {
      "id": "N131",
      "lat": 24.5964,
      "lng": 118.3097,
      "name": "老二之家公寓",
      "campus": "翔安"
    },
    {
      "id": "N132",
      "lat": 24.6025,
      "lng": 118.3175,
      "name": "厦大科技园-科转餐厅",
      "campus": "翔安"
    },
    {
      "id": "N133",
      "lat": 24.6078,
      "lng": 118.3138,
      "name": "小巨蛋咖啡厅(暂停营业)",
      "campus": "翔安"
    },
    {
      "id": "N134",
      "lat": 24.6016,
      "lng": 118.3176,
      "name": "邻家饭堂",
      "campus": "翔安"
    },
    {
      "id": "N135",
      "lat": 24.605,
      "lng": 118.3114,
      "name": "厦门大学翔安校区德旺图书馆",
      "campus": "翔安"
    },
    {
      "id": "N136",
      "lat": 24.6005,
      "lng": 118.3094,
      "name": "东园东里318号楼",
      "campus": "翔安"
    },
    {
      "id": "N137",
      "lat": 24.6077,
      "lng": 118.3082,
      "name": "厦门大学翔安校区药学院",
      "campus": "翔安"
    },
    {
      "id": "N138",
      "lat": 24.607,
      "lng": 118.3156,
      "name": "厦门大学环境与生态学院",
      "campus": "翔安"
    },
    {
      "id": "N139",
      "lat": 24.6021,
      "lng": 118.3169,
      "name": "香山街道便民服务中心",
      "campus": "翔安"
    },
    {
      "id": "N140",
      "lat": 24.6011,
      "lng": 118.3173,
      "name": "香山街道综治中心",
      "campus": "翔安"
    },
    {
      "id": "N141",
      "lat": 24.6026,
      "lng": 118.3175,
      "name": "粤浦科技·厦门创新中心招商中心",
      "campus": "翔安"
    },
    {
      "id": "N142",
      "lat": 24.6026,
      "lng": 118.3177,
      "name": "厦门临空经济片区企业服务中心",
      "campus": "翔安"
    },
    {
      "id": "N143",
      "lat": 24.6066,
      "lng": 118.3156,
      "name": "厦门大学翔安校区环境科学研究中心(纬二路)",
      "campus": "翔安"
    },
    {
      "id": "N144",
      "lat": 24.6089,
      "lng": 118.3077,
      "name": "厦门大学翔安校区实验动物中心",
      "campus": "翔安"
    },
    {
      "id": "N145",
      "lat": 24.6013,
      "lng": 118.3156,
      "name": "翔安创新实验室",
      "campus": "翔安"
    },
    {
      "id": "N146",
      "lat": 24.6025,
      "lng": 118.3174,
      "name": "厦门大学国家大学科技园(翔安园区)-2号楼",
      "campus": "翔安"
    },
    {
      "id": "N147",
      "lat": 24.5968,
      "lng": 118.3227,
      "name": "霄垄新莲南里59号楼",
      "campus": "翔安"
    },
    {
      "id": "N148",
      "lat": 24.5923,
      "lng": 118.3193,
      "name": "珩厝西里406号楼",
      "campus": "翔安"
    },
    {
      "id": "N149",
      "lat": 24.6065,
      "lng": 118.3175,
      "name": "厦门大学翔安校区能源学院",
      "campus": "翔安"
    },
    {
      "id": "N150",
      "lat": 24.6047,
      "lng": 118.3212,
      "name": "翔安·正荣府营销中心",
      "campus": "翔安"
    },
    {
      "id": "N151",
      "lat": 24.6048,
      "lng": 118.3214,
      "name": "屿舞艺术中心",
      "campus": "翔安"
    },
    {
      "id": "N152",
      "lat": 24.6052,
      "lng": 118.3222,
      "name": "厦门市翔安区香山第一中心幼儿园",
      "campus": "翔安"
    },
    {
      "id": "N153",
      "lat": 24.6038,
      "lng": 118.3238,
      "name": "金茂·厦门国际社区营销中心",
      "campus": "翔安"
    },
    {
      "id": "N154",
      "lat": 24.5986,
      "lng": 118.3254,
      "name": "研美吉皮肤管理中心",
      "campus": "翔安"
    },
    {
      "id": "N155",
      "lat": 24.6074,
      "lng": 118.3208,
      "name": "贺胜购物中心",
      "campus": "翔安"
    },
    {
      "id": "N156",
      "lat": 24.6072,
      "lng": 118.3223,
      "name": "海晟大学府营销中心",
      "campus": "翔安"
    },
    {
      "id": "N157",
      "lat": 24.6088,
      "lng": 118.321,
      "name": "人社劳动保障服务窗口(新店镇便民服务中心沙美片区服务站)",
      "campus": "翔安"
    },
    {
      "id": "N158",
      "lat": 24.6092,
      "lng": 118.316,
      "name": "厦门大学翔安校区学生活动中心",
      "campus": "翔安"
    },
    {
      "id": "N159",
      "lat": 24.6056,
      "lng": 118.3212,
      "name": "特房·芙蓉书院营销中心(装修中)",
      "campus": "翔安"
    },
    {
      "id": "N160",
      "lat": 24.6062,
      "lng": 118.319,
      "name": "嘉庚实验室",
      "campus": "翔安"
    },
    {
      "id": "N161",
      "lat": 24.6073,
      "lng": 118.317,
      "name": "厦门大学翔安校区醇醚酯化工清洁生产国家工程实验室",
      "campus": "翔安"
    },
    {
      "id": "N162",
      "lat": 24.6081,
      "lng": 118.3224,
      "name": "佳杰公寓",
      "campus": "翔安"
    },
    {
      "id": "N163",
      "lat": 24.6117,
      "lng": 118.3091,
      "name": "厦门大学翔安校区思源餐厅",
      "campus": "翔安"
    },
    {
      "id": "N164",
      "lat": 24.6117,
      "lng": 118.3089,
      "name": "瑞幸咖啡(厦门大学翔安校区思源餐厅店)",
      "campus": "翔安"
    },
    {
      "id": "N165",
      "lat": 24.6118,
      "lng": 118.309,
      "name": "NOWWA挪瓦咖啡(见福福建美识家厦大翔安校区2店)",
      "campus": "翔安"
    },
    {
      "id": "N166",
      "lat": 24.605,
      "lng": 118.3069,
      "name": "厦门大学翔安校区-椭圆楼",
      "campus": "翔安"
    },
    {
      "id": "N167",
      "lat": 24.6063,
      "lng": 118.2953,
      "name": "茂林村学校22号楼",
      "campus": "翔安"
    },
    {
      "id": "N168",
      "lat": 24.6115,
      "lng": 118.308,
      "name": "厦门大学翔安校区映雪3号楼",
      "campus": "翔安"
    },
    {
      "id": "N169",
      "lat": 24.6087,
      "lng": 118.3112,
      "name": "厦门大学航空航天学院院楼",
      "campus": "翔安"
    },
    {
      "id": "N170",
      "lat": 24.6078,
      "lng": 118.304,
      "name": "智能快递服务中心(西区丰庭鸟箱店)",
      "campus": "翔安"
    },
    {
      "id": "N171",
      "lat": 24.6108,
      "lng": 118.3079,
      "name": "厦门大学翔安校区快递服务中心",
      "campus": "翔安"
    },
    {
      "id": "N172",
      "lat": 24.6108,
      "lng": 118.3045,
      "name": "厦门大学翔安校区国光公寓",
      "campus": "翔安"
    },
    {
      "id": "N173",
      "lat": 24.6114,
      "lng": 118.3068,
      "name": "厦门大学翔安校区三期博学公寓",
      "campus": "翔安"
    },
    {
      "id": "N174",
      "lat": 24.6121,
      "lng": 118.3076,
      "name": "厦门大学翔安校区映雪公寓",
      "campus": "翔安"
    },
    {
      "id": "N175",
      "lat": 24.6115,
      "lng": 118.3105,
      "name": "厦门大学翔安校区爱秋体育馆",
      "campus": "翔安"
    },
    {
      "id": "N176",
      "lat": 24.611,
      "lng": 118.3175,
      "name": "厦门大学翔安校区竞丰餐厅",
      "campus": "翔安"
    },
    {
      "id": "N177",
      "lat": 24.6104,
      "lng": 118.3166,
      "name": "手拿咖啡集合店",
      "campus": "翔安"
    },
    {
      "id": "N178",
      "lat": 24.6105,
      "lng": 118.3168,
      "name": "库迪咖啡(厦门大学翔安校区店)",
      "campus": "翔安"
    },
    {
      "id": "N179",
      "lat": 24.6105,
      "lng": 118.317,
      "name": "nowwa挪瓦咖啡(见福福建美识家厦大翔安校区店)",
      "campus": "翔安"
    },
    {
      "id": "N180",
      "lat": 24.6107,
      "lng": 118.3172,
      "name": "瑞幸咖啡(厦门大学翔安校区竞丰餐厅店)",
      "campus": "翔安"
    },
    {
      "id": "N181",
      "lat": 24.6152,
      "lng": 118.3102,
      "name": "厦门大学翔安校区新工科研发大楼(装修中)",
      "campus": "翔安"
    },
    {
      "id": "N182",
      "lat": 24.6101,
      "lng": 118.323,
      "name": "泰热泰式餐厅",
      "campus": "翔安"
    },
    {
      "id": "N183",
      "lat": 24.6095,
      "lng": 118.3238,
      "name": "丫丫中西餐厅",
      "campus": "翔安"
    },
    {
      "id": "N184",
      "lat": 24.6085,
      "lng": 118.324,
      "name": "龙德海餐厅",
      "campus": "翔安"
    },
    {
      "id": "N185",
      "lat": 24.6137,
      "lng": 118.3242,
      "name": "鑫欣翔超市(佳家公寓店)",
      "campus": "翔安"
    },
    {
      "id": "N186",
      "lat": 24.6085,
      "lng": 118.3213,
      "name": "翔安厦大东侧学生街一期项目5号楼",
      "campus": "翔安"
    },
    {
      "id": "N187",
      "lat": 24.6121,
      "lng": 118.3222,
      "name": "ours 7号楼",
      "campus": "翔安"
    },
    {
      "id": "N188",
      "lat": 24.6092,
      "lng": 118.3207,
      "name": "新店镇便民服务中心沙美片区服务站",
      "campus": "翔安"
    },
    {
      "id": "N189",
      "lat": 24.6091,
      "lng": 118.3208,
      "name": "大学社区党群服务中心",
      "campus": "翔安"
    },
    {
      "id": "N190",
      "lat": 24.6117,
      "lng": 118.3231,
      "name": "遇见学生公寓",
      "campus": "翔安"
    },
    {
      "id": "N191",
      "lat": 24.6086,
      "lng": 118.3221,
      "name": "厦门阳光公寓",
      "campus": "翔安"
    },
    {
      "id": "N192",
      "lat": 24.6091,
      "lng": 118.3221,
      "name": "夏之星公寓(厦门大学店)",
      "campus": "翔安"
    },
    {
      "id": "N193",
      "lat": 24.6092,
      "lng": 118.3222,
      "name": "夏之星公寓之一",
      "campus": "翔安"
    },
    {
      "id": "N194",
      "lat": 24.6089,
      "lng": 118.3224,
      "name": "乡居公寓",
      "campus": "翔安"
    },
    {
      "id": "N195",
      "lat": 24.6094,
      "lng": 118.3225,
      "name": "雅居公寓",
      "campus": "翔安"
    },
    {
      "id": "N196",
      "lat": 24.6087,
      "lng": 118.3227,
      "name": "岩清公寓",
      "campus": "翔安"
    },
    {
      "id": "N197",
      "lat": 24.6092,
      "lng": 118.3228,
      "name": "好友公寓",
      "campus": "翔安"
    },
    {
      "id": "N198",
      "lat": 24.6089,
      "lng": 118.3229,
      "name": "研旅公寓·新房招租",
      "campus": "翔安"
    },
    {
      "id": "N199",
      "lat": 24.609,
      "lng": 118.3232,
      "name": "厦门栋梁公寓",
      "campus": "翔安"
    },
    {
      "id": "N200",
      "lat": 24.6095,
      "lng": 118.3235,
      "name": "天成公寓住宿(厦门大学翔安校区店)",
      "campus": "翔安"
    },
    {
      "id": "N201",
      "lat": 24.6095,
      "lng": 118.324,
      "name": "鑫寓公寓",
      "campus": "翔安"
    },
    {
      "id": "N202",
      "lat": 24.6094,
      "lng": 118.3242,
      "name": "厦大缘公寓(翔安厦大店)",
      "campus": "翔安"
    },
    {
      "id": "N203",
      "lat": 24.612,
      "lng": 118.3235,
      "name": "ours公寓",
      "campus": "翔安"
    },
    {
      "id": "N204",
      "lat": 24.6089,
      "lng": 118.3248,
      "name": "初厦精品公寓",
      "campus": "翔安"
    },
    {
      "id": "N205",
      "lat": 24.6105,
      "lng": 118.3245,
      "name": "新雅居公寓",
      "campus": "翔安"
    },
    {
      "id": "N206",
      "lat": 24.6128,
      "lng": 118.3232,
      "name": "翔美公寓",
      "campus": "翔安"
    },
    {
      "id": "N207",
      "lat": 24.61,
      "lng": 118.3252,
      "name": "厦门九屿公寓民宿",
      "campus": "翔安"
    },
    {
      "id": "N208",
      "lat": 24.6136,
      "lng": 118.3234,
      "name": "随寓而安公寓",
      "campus": "翔安"
    },
    {
      "id": "N209",
      "lat": 24.6137,
      "lng": 118.3236,
      "name": "王子公寓",
      "campus": "翔安"
    },
    {
      "id": "N210",
      "lat": 24.6138,
      "lng": 118.3241,
      "name": "佳家公寓",
      "campus": "翔安"
    },
    {
      "id": "N211",
      "lat": 24.6128,
      "lng": 118.325,
      "name": "乡悦时光公寓",
      "campus": "翔安"
    },
    {
      "id": "N212",
      "lat": 24.6107,
      "lng": 118.3261,
      "name": "厦门榕畔公寓",
      "campus": "翔安"
    },
    {
      "id": "N213",
      "lat": 24.6104,
      "lng": 118.3263,
      "name": "167公寓",
      "campus": "翔安"
    },
    {
      "id": "N214",
      "lat": 24.6128,
      "lng": 118.3252,
      "name": "小仙公寓",
      "campus": "翔安"
    },
    {
      "id": "N215",
      "lat": 24.614,
      "lng": 118.3244,
      "name": "鹏程公寓",
      "campus": "翔安"
    },
    {
      "id": "N216",
      "lat": 24.6102,
      "lng": 118.3266,
      "name": "二七七公寓",
      "campus": "翔安"
    },
    {
      "id": "N217",
      "lat": 24.613,
      "lng": 118.3255,
      "name": "44号公寓",
      "campus": "翔安"
    },
    {
      "id": "N218",
      "lat": 24.6125,
      "lng": 118.3262,
      "name": "吉翔公寓(沙美村)",
      "campus": "翔安"
    }
  ]
}