{
  "pois": [
    {
      "id": "P001",
      "name": "李厝埔餐厅",
      "type": "Canteen",
      "lat": 24.596665,
      "lng": 118.303752,
      "rating": 4.4,
      "campus": "翔安",
      "address": "东园村西里177号",
      "tel": "13860481963",
      "nearest_node": "N100"
    },
    {
      "id": "P002",
      "name": "厦门大学翔安校区丰庭餐厅",
      "type": "Canteen",
      "lat": 24.608163,
      "lng": 118.302803,
      "rating": 4.4,
      "campus": "翔安",
      "address": "新店镇沙美村厦门大学翔安校区",
      "tel": "18250861331",
      "nearest_node": "N101"
    },
    {
      "id": "P003",
      "name": "幸福人家餐厅",
      "type": "Canteen",
      "lat": 24.602109,
      "lng": 118.292005,
      "rating": 4.1,
      "campus": "翔安",
      "address": "新莲路与茂兴路交叉口西北40米",
      "tel": "13950088616",
      "nearest_node": "N102"
    },
    {
      "id": "P004",
      "name": "咖啡书吧",
      "type": "Café",
      "lat": 24.604638,
      "lng": 118.29852,
      "rating": 4.0,
      "campus": "翔安",
      "address": "清兴路与纬四路交叉口北120米",
      "tel": "13960772731",
      "nearest_node": "N103"
    },
    {
      "id": "P005",
      "name": "烟酒茶",
      "type": "Café",
      "lat": 24.595761,
      "lng": 118.305448,
      "rating": 3.6,
      "campus": "翔安",
      "address": "东园社区南里20号",
      "tel": [],
      "nearest_node": "N104"
    },
    {
      "id": "P006",
      "name": "厦门大学信息学院正信楼",
      "type": "Building",
      "lat": 24.603575,
      "lng": 118.300432,
      "rating": 4.0,
      "campus": "翔安",
      "address": "纬四路与清兴路交叉口东220米",
      "tel": [],
      "nearest_node": "N105"
    },
    {
      "id": "P007",
      "name": "厦门大学翔安校区益海嘉里楼",
      "type": "Building",
      "lat": 24.604585,
      "lng": 118.301033,
      "rating": 4.0,
      "campus": "翔安",
      "address": "翔安南路4221号",
      "tel": [],
      "nearest_node": "N106"
    },
    {
      "id": "P008",
      "name": "厦门大学翔安校区信息学院5号楼智信楼",
      "type": "Building",
      "lat": 24.605651,
      "lng": 118.301538,
      "rating": 4.0,
      "campus": "翔安",
      "address": "纬四路与清兴路交叉口东北400米",
      "tel": [],
      "nearest_node": "N107"
    },
    {
      "id": "P009",
      "name": "厦门大学翔安校区医学院",
      "type": "Building",
      "lat": 24.605275,
      "lng": 118.305125,
      "rating": 4.0,
      "campus": "翔安",
      "address": "新店镇翔安南路",
      "tel": [],
      "nearest_node": "N108"
    },
    {
      "id": "P010",
      "name": "厦门大学翔安校区生命科学学院",
      "type": "Building",
      "lat": 24.604132,
      "lng": 118.307121,
      "rating": 4.0,
      "campus": "翔安",
      "address": "新店镇东园村厦门大学翔安校区",
      "tel": "0592-2186392",
      "nearest_node": "N109"
    },
    {
      "id": "P011",
      "name": "厦门大学翔安校区公共卫生学院",
      "type": "Building",
      "lat": 24.606082,
      "lng": 118.306605,
      "rating": 4.0,
      "campus": "翔安",
      "address": "新店镇东园村厦门大学翔安校区",
      "tel": "0592-2186358",
      "nearest_node": "N110"
    },
    {
      "id": "P012",
      "name": "厦门大学翔安校区公共卫生学院实验医学系",
      "type": "Building",
      "lat": 24.606086,
      "lng": 118.306635,
      "rating": 4.0,
      "campus": "翔安",
      "address": "翔安南路4221号厦门大学(翔安校区)",
      "tel": [],
      "nearest_node": "N110"
    },
    {
      "id": "P013",
      "name": "厦门大学国际学术交流中心(翔安校区店)",
      "type": "Building",
      "lat": 24.602836,
      "lng": 118.305536,
      "rating": 4.7,
      "campus": "翔安",
      "address": "新店镇翔安南路4221-123号",
      "tel": "0592-2882888",
      "nearest_node": "N111"
    },
    {
      "id": "P014",
      "name": "厦门大学国际学术交流中心翔安校区店大堂",
      "type": "Building",
      "lat": 24.603062,
      "lng": 118.305923,
      "rating": 4.0,
      "campus": "翔安",
      "address": "新店镇翔安南路4221-123号厦门大学国际学术交流中心",
      "tel": "0592-2882888",
      "nearest_node": "N112"
    },
    {
      "id": "P015",
      "name": "厦门大学翔安校区国家传染病诊断试剂与疫苗工程技术研究中心",
      "type": "Building",
      "lat": 24.605168,
      "lng": 118.306666,
      "rating": 4.0,
      "campus": "翔安",
      "address": "厦门大学翔安校区公共卫生学院",
      "tel": [],
      "nearest_node": "N113"
    },
    {
      "id": "P016",
      "name": "厦门大学翔安校区分子影像暨转化医学研究中心",
      "type": "Building",
      "lat": 24.6069,
      "lng": 118.306429,
      "rating": 4.0,
      "campus": "翔安",
      "address": "翔安南路4221号厦门大学(翔安校区)",
      "tel": [],
      "nearest_node": "N114"
    },
    {
      "id": "P017",
      "name": "厦门大学公共卫生学院分子影像中心",
      "type": "Building",
      "lat": 24.60699,
      "lng": 118.306473,
      "rating": 4.0,
      "campus": "翔安",
      "address": "新店镇东园村厦门大学翔安校区厦门大学翔安校区丰庭4号楼",
      "tel": [],
      "nearest_node": "N115"
    },
    {
      "id": "P018",
      "name": "嘉庚创新实验室智慧储能大型科研基础设施项目",
      "type": "Building",
      "lat": 24.593013,
      "lng": 118.30202,
      "rating": 4.0,
      "campus": "翔安",
      "address": "翔安南路4168号",
      "tel": [],
      "nearest_node": "N116"
    },
    {
      "id": "P019",
      "name": "中铁一局嘉庚创新实验室大型科研基础设施项目基坑支护工程",
      "type": "Building",
      "lat": 24.593011,
      "lng": 118.301368,
      "rating": 4.0,
      "campus": "翔安",
      "address": "创苑路西北侧",
      "tel": [],
      "nearest_node": "N117"
    },
    {
      "id": "P020",
      "name": "细胞应激生物学国家重点实验室",
      "type": "Building",
      "lat": 24.606068,
      "lng": 118.30773,
      "rating": 4.0,
      "campus": "翔安",
      "address": "翔安南路厦门大学翔安校区跃进楼",
      "tel": [],
      "nearest_node": "N118"
    },
    {
      "id": "P021",
      "name": "厦门大学翔安校区笃行公寓",
      "type": "Building",
      "lat": 24.608984,
      "lng": 118.304113,
      "rating": 4.0,
      "campus": "翔安",
      "address": "新店镇东园村厦门大学翔安校区",
      "tel": [],
      "nearest_node": "N119"
    },
    {
      "id": "P022",
      "name": "思家公寓",
      "type": "Building",
      "lat": 24.59917,
      "lng": 118.304847,
      "rating": 4.0,
      "campus": "翔安",
      "address": "新店镇翔安南路东园西里259号",
      "tel": "15980801070",
      "nearest_node": "N120"
    },
    {
      "id": "P023",
      "name": "厦门青藤酒店公寓(厦大店)",
      "type": "Building",
      "lat": 24.59706,
      "lng": 118.304011,
      "rating": 2.6,
      "campus": "翔安",
      "address": "东园西里195号",
      "tel": "0592-7617585;13600930614;15306988286",
      "nearest_node": "N121"
    },
    {
      "id": "P024",
      "name": "厦门57号公寓",
      "type": "Building",
      "lat": 24.596739,
      "lng": 118.304645,
      "rating": 4.0,
      "campus": "翔安",
      "address": "香山街道东园西里57号",
      "tel": [],
      "nearest_node": "N122"
    },
    {
      "id": "P025",
      "name": "暖居公寓",
      "type": "Building",
      "lat": 24.599403,
      "lng": 118.307045,
      "rating": 4.0,
      "campus": "翔安",
      "address": "东园路与东园东里交叉口西300米",
      "tel": [],
      "nearest_node": "N123"
    },
    {
      "id": "P026",
      "name": "都懂公寓",
      "type": "Building",
      "lat": 24.600125,
      "lng": 118.307825,
      "rating": 4.0,
      "campus": "翔安",
      "address": "翔安南路辅路与群贤西路交叉口东南280米",
      "tel": [],
      "nearest_node": "N124"
    },
    {
      "id": "P027",
      "name": "东缘公寓",
      "type": "Building",
      "lat": 24.600133,
      "lng": 118.307837,
      "rating": 4.0,
      "campus": "翔安",
      "address": "东园村243号(翔安厦大校区西侧门对面297米)",
      "tel": [],
      "nearest_node": "N124"
    },
    {
      "id": "P028",
      "name": "祺昕公寓",
      "type": "Building",
      "lat": 24.599714,
      "lng": 118.307848,
      "rating": 4.0,
      "campus": "翔安",
      "address": "翔安南路辅路与群贤西路交叉口南320米",
      "tel": [],
      "nearest_node": "N125"
    },
    {
      "id": "P029",
      "name": "美佳溪畔居公寓",
      "type": "Building",
      "lat": 24.6004,
      "lng": 118.308892,
      "rating": 4.0,
      "campus": "翔安",
      "address": "东园东里382号",
      "tel": "18965112199",
      "nearest_node": "N126"
    },
    {
      "id": "P030",
      "name": "茹家公寓",
      "type": "Building",
      "lat": 24.60031,
      "lng": 118.309042,
      "rating": 4.0,
      "campus": "翔安",
      "address": "香山街道东园村202号",
      "tel": "13600979474",
      "nearest_node": "N127"
    },
    {
      "id": "P031",
      "name": "清河之家公寓",
      "type": "Building",
      "lat": 24.599971,
      "lng": 118.309516,
      "rating": 4.0,
      "campus": "翔安",
      "address": "新店镇东园村东里220号",
      "tel": "15159217320",
      "nearest_node": "N128"
    },
    {
      "id": "P032",
      "name": "鸿门公寓",
      "type": "Building",
      "lat": 24.60044,
      "lng": 118.309775,
      "rating": 4.0,
      "campus": "翔安",
      "address": "厦大翔安校区东园东里313号",
      "tel": [],
      "nearest_node": "N129"
    },
    {
      "id": "P033",
      "name": "翔安南路鑫源公寓",
      "type": "Building",
      "lat": 24.600968,
      "lng": 118.310027,
      "rating": 4.0,
      "campus": "翔安",
      "address": "翔安南路辅路与群贤西路交叉口东南360米",
      "tel": [],
      "nearest_node": "N130"
    },
    {
      "id": "P034",
      "name": "老二之家公寓",
      "type": "Building",
      "lat": 24.596425,
      "lng": 118.309725,
      "rating": 4.0,
      "campus": "翔安",
      "address": "新莲路与屿园路交叉口西160米",
      "tel": [],
      "nearest_node": "N131"
    },
    {
      "id": "P035",
      "name": "厦大科技园-科转餐厅",
      "type": "Canteen",
      "lat": 24.602474,
      "lng": 118.317487,
      "rating": 4.0,
      "campus": "翔安",
      "address": "翔安南路5004号214室",
      "tel": "19859226020",
      "nearest_node": "N132"
    },
    {
      "id": "P036",
      "name": "小巨蛋咖啡厅(暂停营业)",
      "type": "Café",
      "lat": 24.607842,
      "lng": 118.31376,
      "rating": 4.3,
      "campus": "翔安",
      "address": "厦门大学翔安校区翔安南路4221-128号",
      "tel": [],
      "nearest_node": "N133"
    },
    {
      "id": "P037",
      "name": "邻家饭堂",
      "type": "Canteen",
      "lat": 24.601634,
      "lng": 118.317618,
      "rating": 3.9,
      "campus": "翔安",
      "address": "翔安南路5008号102室",
      "tel": [],
      "nearest_node": "N134"
    },
    {
      "id": "P038",
      "name": "厦门大学翔安校区德旺图书馆",
      "type": "Library",
      "lat": 24.605005,
      "lng": 118.311415,
      "rating": 4.0,
      "campus": "翔安",
      "address": "新店镇东园村厦门大学翔安校区",
      "tel": "0592-2886616",
      "nearest_node": "N135"
    },
    {
      "id": "P039",
      "name": "东园东里318号楼",
      "type": "Building",
      "lat": 24.600512,
      "lng": 118.309398,
      "rating": 4.0,
      "campus": "翔安",
      "address": "翔安南路辅路与群贤西路交叉口东南340米",
      "tel": [],
      "nearest_node": "N136"
    },
    {
      "id": "P040",
      "name": "厦门大学翔安校区药学院",
      "type": "Building",
      "lat": 24.607682,
      "lng": 118.308228,
      "rating": 4.0,
      "campus": "翔安",
      "address": "新店镇东园村厦门大学翔安校区",
      "tel": "0592-2181852;0592-2182453",
      "nearest_node": "N137"
    },
    {
      "id": "P041",
      "name": "厦门大学环境与生态学院",
      "type": "Building",
      "lat": 24.606988,
      "lng": 118.31563,
      "rating": 4.0,
      "campus": "翔安",
      "address": "新店镇东园村厦门大学翔安校区",
      "tel": "0592-2186416",
      "nearest_node": "N138"
    },
    {
      "id": "P042",
      "name": "香山街道便民服务中心",
      "type": "Building",
      "lat": 24.602058,
      "lng": 118.316921,
      "rating": 4.1,
      "campus": "翔安",
      "address": "翔安南路5000号",
      "tel": [],
      "nearest_node": "N139"
    },
    {
      "id": "P043",
      "name": "香山街道综治中心",
      "type": "Building",
      "lat": 24.601119,
      "lng": 118.317309,
      "rating": 4.0,
      "campus": "翔安",
      "address": "翔安区翔安南路5006-112号",
      "tel": "0592-7882008",
      "nearest_node": "N140"
    },
    {
      "id": "P044",
      "name": "粤浦科技·厦门创新中心招商中心",
      "type": "Building",
      "lat": 24.602602,
      "lng": 118.317503,
      "rating": 3.4,
      "campus": "翔安",
      "address": "厦大科技园2号楼1号梯12楼",
      "tel": "13306966506",
      "nearest_node": "N141"
    },
    {
      "id": "P045",
      "name": "厦门临空经济片区企业服务中心",
      "type": "Building",
      "lat": 24.602632,
      "lng": 118.317719,
      "rating": 3.7,
      "campus": "翔安",
      "address": "翔安南路5002号103单元",
      "tel": "0592-3668877",
      "nearest_node": "N142"
    },
    {
      "id": "P046",
      "name": "厦门大学翔安校区环境科学研究中心(纬二路)",
      "type": "Building",
      "lat": 24.606625,
      "lng": 118.315575,
      "rating": 4.0,
      "campus": "翔安",
      "address": "新店镇沙美村厦门大学翔安校区",
      "tel": [],
      "nearest_node": "N143"
    },
    {
      "id": "P047",
      "name": "福建省滨海湿地保护与生态恢复工程技术研究中心",
      "type": "Building",
      "lat": 24.606959,
      "lng": 118.315589,
      "rating": 4.0,
      "campus": "翔安",
      "address": "博学路与群贤东路交叉口西北140米",
      "tel": [],
      "nearest_node": "N138"
    },
    {
      "id": "P048",
      "name": "厦门大学翔安校区实验动物中心",
      "type": "Building",
      "lat": 24.608876,
      "lng": 118.307688,
      "rating": 4.0,
      "campus": "翔安",
      "address": "翔安南路4221号厦门大学(翔安校区)",
      "tel": [],
      "nearest_node": "N144"
    },
    {
      "id": "P049",
      "name": "厦门大学翔安校区实验动物中心二期",
      "type": "Building",
      "lat": 24.608875,
      "lng": 118.307675,
      "rating": 4.0,
      "campus": "翔安",
      "address": "翔安南路4221号厦门大学(翔安校区)",
      "tel": [],
      "nearest_node": "N144"
    },
    {
      "id": "P050",
      "name": "翔安创新实验室",
      "type": "Building",
      "lat": 24.601266,
      "lng": 118.315607,
      "rating": 4.0,
      "campus": "翔安",
      "address": "翔安南路5666号厦门大学国家大学科技园西侧(厦门大学翔安校区南门马路对面)",
      "tel": "13559505253",
      "nearest_node": "N145"
    },
    {
      "id": "P051",
      "name": "厦门大学国家大学科技园(翔安园区)",
      "type": "Building",
      "lat": 24.602476,
      "lng": 118.317484,
      "rating": 4.0,
      "campus": "翔安",
      "address": "翔安南路5002号",
      "tel": "0592-2881333",
      "nearest_node": "N132"
    },
    {
      "id": "P052",
      "name": "厦门大学国家大学科技园(翔安园区)-2号楼",
      "type": "Building",
      "lat": 24.602487,
      "lng": 118.317413,
      "rating": 4.0,
      "campus": "翔安",
      "address": "翔安南路5002号厦门大学国家大学科技园(翔安园区)",
      "tel": [],
      "nearest_node": "N146"
    },
    {
      "id": "P053",
      "name": "霄垄新莲南里59号楼",
      "type": "Building",
      "lat": 24.596829,
      "lng": 118.322674,
      "rating": 4.0,
      "campus": "翔安",
      "address": "翔安南路5000号",
      "tel": [],
      "nearest_node": "N147"
    },
    {
      "id": "P054",
      "name": "珩厝西里406号楼",
      "type": "Building",
      "lat": 24.592333,
      "lng": 118.31934,
      "rating": 4.0,
      "campus": "翔安",
      "address": "香山街道",
      "tel": [],
      "nearest_node": "N148"
    },
    {
      "id": "P055",
      "name": "厦门大学翔安校区能源学院",
      "type": "Building",
      "lat": 24.606484,
      "lng": 118.317515,
      "rating": 4.0,
      "campus": "翔安",
      "address": "新店镇东园村厦门大学翔安校区",
      "tel": [],
      "nearest_node": "N149"
    },
    {
      "id": "P056",
      "name": "翔安·正荣府营销中心",
      "type": "Building",
      "lat": 24.604691,
      "lng": 118.32121,
      "rating": 4.4,
      "campus": "翔安",
      "address": "翔安·正荣府",
      "tel": "0592-7217777",
      "nearest_node": "N150"
    },
    {
      "id": "P057",
      "name": "屿舞艺术中心",
      "type": "Building",
      "lat": 24.604822,
      "lng": 118.321376,
      "rating": 3.8,
      "campus": "翔安",
      "address": "沙美南二里3-101-1",
      "tel": "18030089314",
      "nearest_node": "N151"
    },
    {
      "id": "P058",
      "name": "厦门市翔安区香山第一中心幼儿园",
      "type": "Building",
      "lat": 24.605225,
      "lng": 118.322223,
      "rating": 4.0,
      "campus": "翔安",
      "address": "香山街道沙美南路15号",
      "tel": [],
      "nearest_node": "N152"
    },
    {
      "id": "P059",
      "name": "金茂·厦门国际社区营销中心",
      "type": "Building",
      "lat": 24.603752,
      "lng": 118.323754,
      "rating": 4.5,
      "campus": "翔安",
      "address": "金茂·厦门国际社区",
      "tel": "0592-3308666",
      "nearest_node": "N153"
    },
    {
      "id": "P060",
      "name": "研美吉皮肤管理中心",
      "type": "Building",
      "lat": 24.598641,
      "lng": 118.3254,
      "rating": 4.0,
      "campus": "翔安",
      "address": "香山街道霄垄社区过泉里35号",
      "tel": "13475097567",
      "nearest_node": "N154"
    },
    {
      "id": "P061",
      "name": "贺胜购物中心",
      "type": "Building",
      "lat": 24.607412,
      "lng": 118.320782,
      "rating": 4.0,
      "campus": "翔安",
      "address": "沙美南路与沙美路交叉口东南60米",
      "tel": [],
      "nearest_node": "N155"
    },
    {
      "id": "P062",
      "name": "海晟大学府营销中心",
      "type": "Building",
      "lat": 24.607223,
      "lng": 118.322285,
      "rating": 4.2,
      "campus": "翔安",
      "address": "海晟大学府",
      "tel": [],
      "nearest_node": "N156"
    },
    {
      "id": "P063",
      "name": "人社劳动保障服务窗口(新店镇便民服务中心沙美片区服务站)",
      "type": "Building",
      "lat": 24.608757,
      "lng": 118.320996,
      "rating": 4.0,
      "campus": "翔安",
      "address": "新店镇沙美村鹊峰南里301-201号",
      "tel": [],
      "nearest_node": "N157"
    },
    {
      "id": "P064",
      "name": "厦门大学翔安校区学生活动中心",
      "type": "Building",
      "lat": 24.609246,
      "lng": 118.315993,
      "rating": 4.0,
      "campus": "翔安",
      "address": "新店镇沙美村厦门大学翔安校区",
      "tel": [],
      "nearest_node": "N158"
    },
    {
      "id": "P065",
      "name": "特房·芙蓉书院营销中心(装修中)",
      "type": "Building",
      "lat": 24.60557,
      "lng": 118.321172,
      "rating": 4.3,
      "campus": "翔安",
      "address": "沙美路",
      "tel": [],
      "nearest_node": "N159"
    },
    {
      "id": "P066",
      "name": "嘉庚实验室",
      "type": "Building",
      "lat": 24.606191,
      "lng": 118.319047,
      "rating": 4.0,
      "campus": "翔安",
      "address": "翔安南路能源材料大楼3号楼",
      "tel": [],
      "nearest_node": "N160"
    },
    {
      "id": "P067",
      "name": "厦门大学翔安校区醇醚酯化工清洁生产国家工程实验室",
      "type": "Building",
      "lat": 24.607272,
      "lng": 118.317037,
      "rating": 4.0,
      "campus": "翔安",
      "address": "新店镇厦门大学翔安校区能源1号楼",
      "tel": [],
      "nearest_node": "N161"
    },
    {
      "id": "P068",
      "name": "佳杰公寓",
      "type": "Building",
      "lat": 24.608083,
      "lng": 118.322442,
      "rating": 4.0,
      "campus": "翔安",
      "address": "沙美西路与沙美中路交叉口东北60米",
      "tel": [],
      "nearest_node": "N162"
    },
    {
      "id": "P069",
      "name": "厦门大学翔安校区思源餐厅",
      "type": "Canteen",
      "lat": 24.611703,
      "lng": 118.309121,
      "rating": 4.5,
      "campus": "翔安",
      "address": "翔安南路4221-134号",
      "tel": [],
      "nearest_node": "N163"
    },
    {
      "id": "P070",
      "name": "瑞幸咖啡(厦门大学翔安校区思源餐厅店)",
      "type": "Café",
      "lat": 24.611717,
      "lng": 118.308907,
      "rating": 4.2,
      "campus": "翔安",
      "address": "厦门大学翔安校区思源餐厅店",
      "tel": "4000100100",
      "nearest_node": "N164"
    },
    {
      "id": "P071",
      "name": "NOWWA挪瓦咖啡(见福福建美识家厦大翔安校区2店)",
      "type": "Café",
      "lat": 24.611769,
      "lng": 118.309009,
      "rating": 3.5,
      "campus": "翔安",
      "address": "大学翔安校区中部综合楼105店面",
      "tel": "15260202392",
      "nearest_node": "N165"
    },
    {
      "id": "P072",
      "name": "厦门大学翔安校区-椭圆楼",
      "type": "Building",
      "lat": 24.604977,
      "lng": 118.306911,
      "rating": 4.0,
      "campus": "翔安",
      "address": "厦门大学(翔安校区)",
      "tel": [],
      "nearest_node": "N166"
    },
    {
      "id": "P073",
      "name": "茂林村学校22号楼",
      "type": "Building",
      "lat": 24.606344,
      "lng": 118.295303,
      "rating": 4.0,
      "campus": "翔安",
      "address": "清兴路与纬四路交叉口西北440米",
      "tel": [],
      "nearest_node": "N167"
    },
    {
      "id": "P074",
      "name": "厦门大学翔安校区映雪3号楼",
      "type": "Building",
      "lat": 24.611452,
      "lng": 118.30798,
      "rating": 4.0,
      "campus": "翔安",
      "address": "翔安南路4221号厦门大学(翔安校区)",
      "tel": [],
      "nearest_node": "N168"
    },
    {
      "id": "P075",
      "name": "厦门大学航空航天学院院楼",
      "type": "Building",
      "lat": 24.608669,
      "lng": 118.311184,
      "rating": 4.0,
      "campus": "翔安",
      "address": "博学路与凌云路交叉口东北460米",
      "tel": [],
      "nearest_node": "N169"
    },
    {
      "id": "P076",
      "name": "智能快递服务中心(西区丰庭鸟箱店)",
      "type": "Building",
      "lat": 24.607825,
      "lng": 118.303975,
      "rating": 4.1,
      "campus": "翔安",
      "address": "新店镇内环路厦门大学翔安校区丰庭4",
      "tel": [],
      "nearest_node": "N170"
    },
    {
      "id": "P077",
      "name": "厦门大学翔安校区快递服务中心",
      "type": "Building",
      "lat": 24.610758,
      "lng": 118.30794,
      "rating": 4.4,
      "campus": "翔安",
      "address": "凌云路与南强北路交叉口西南280米",
      "tel": [],
      "nearest_node": "N171"
    },
    {
      "id": "P078",
      "name": "厦门大学翔安校区国光公寓",
      "type": "Building",
      "lat": 24.610809,
      "lng": 118.304487,
      "rating": 4.0,
      "campus": "翔安",
      "address": "新店镇东园村厦门大学翔安校区",
      "tel": [],
      "nearest_node": "N172"
    },
    {
      "id": "P079",
      "name": "厦门大学翔安校区三期博学公寓",
      "type": "Building",
      "lat": 24.611384,
      "lng": 118.306826,
      "rating": 4.0,
      "campus": "翔安",
      "address": "翔安南路",
      "tel": [],
      "nearest_node": "N173"
    },
    {
      "id": "P080",
      "name": "厦门大学翔安校区映雪公寓",
      "type": "Building",
      "lat": 24.612108,
      "lng": 118.307571,
      "rating": 4.0,
      "campus": "翔安",
      "address": "南强北路与凌云路交叉口西220米",
      "tel": [],
      "nearest_node": "N174"
    },
    {
      "id": "P081",
      "name": "厦门大学翔安校区爱秋体育馆",
      "type": "Building",
      "lat": 24.611527,
      "lng": 118.310497,
      "rating": 4.5,
      "campus": "翔安",
      "address": "新店镇厦门大学翔安校区",
      "tel": [],
      "nearest_node": "N175"
    },
    {
      "id": "P082",
      "name": "厦门大学翔安校区竞丰餐厅",
      "type": "Canteen",
      "lat": 24.611024,
      "lng": 118.317484,
      "rating": 4.5,
      "campus": "翔安",
      "address": "新店镇东园村厦门大学翔安校区",
      "tel": [],
      "nearest_node": "N176"
    },
    {
      "id": "P083",
      "name": "手拿咖啡集合店",
      "type": "Café",
      "lat": 24.610363,
      "lng": 118.316594,
      "rating": 3.9,
      "campus": "翔安",
      "address": "翔安区夏大翔安校区一期综合楼105号美识家旁",
      "tel": "15989695323;17750629344",
      "nearest_node": "N177"
    },
    {
      "id": "P084",
      "name": "库迪咖啡(厦门大学翔安校区店)",
      "type": "Café",
      "lat": 24.610524,
      "lng": 118.316829,
      "rating": 4.1,
      "campus": "翔安",
      "address": "翔安南路4221-126-112厦门大学翔安校区一期综合楼负1层",
      "tel": "18250767033",
      "nearest_node": "N178"
    },
    {
      "id": "P085",
      "name": "nowwa挪瓦咖啡(见福福建美识家厦大翔安校区店)",
      "type": "Café",
      "lat": 24.61047,
      "lng": 118.317018,
      "rating": 3.6,
      "campus": "翔安",
      "address": "厦门大学翔安校区公寓一期综合楼104",
      "tel": "15710610618",
      "nearest_node": "N179"
    },
    {
      "id": "P086",
      "name": "瑞幸咖啡(厦门大学翔安校区竞丰餐厅店)",
      "type": "Café",
      "lat": 24.610738,
      "lng": 118.317198,
      "rating": 4.3,
      "campus": "翔安",
      "address": "新店镇翔安南路厦门大学翔安校区学生公寓一期综合楼三层301之一",
      "tel": "4000100100",
      "nearest_node": "N180"
    },
    {
      "id": "P087",
      "name": "厦门大学翔安校区新工科研发大楼(装修中)",
      "type": "Building",
      "lat": 24.61525,
      "lng": 118.310234,
      "rating": 4.0,
      "campus": "翔安",
      "address": "翔安南路4221-30号",
      "tel": [],
      "nearest_node": "N181"
    },
    {
      "id": "P088",
      "name": "泰热泰式餐厅",
      "type": "Canteen",
      "lat": 24.610138,
      "lng": 118.323006,
      "rating": 4.3,
      "campus": "翔安",
      "address": "新店镇沙美村鹊峰南里71号-103",
      "tel": "15060795906",
      "nearest_node": "N182"
    },
    {
      "id": "P089",
      "name": "丫丫中西餐厅",
      "type": "Canteen",
      "lat": 24.609522,
      "lng": 118.323821,
      "rating": 4.0,
      "campus": "翔安",
      "address": "沙美鹊峰南里22-104-106",
      "tel": "13517048764",
      "nearest_node": "N183"
    },
    {
      "id": "P090",
      "name": "龙德海餐厅",
      "type": "Canteen",
      "lat": 24.608501,
      "lng": 118.323998,
      "rating": 4.5,
      "campus": "翔安",
      "address": "新店镇沙美村鹊峰南里228号一6",
      "tel": "0592-7297089",
      "nearest_node": "N184"
    },
    {
      "id": "P091",
      "name": "鑫欣翔超市(佳家公寓店)",
      "type": "Building",
      "lat": 24.6137,
      "lng": 118.32417,
      "rating": 3.7,
      "campus": "翔安",
      "address": "沙美路与411县道交叉口西南460米",
      "tel": [],
      "nearest_node": "N185"
    },
    {
      "id": "P092",
      "name": "翔安厦大东侧学生街一期项目5号楼",
      "type": "Building",
      "lat": 24.608454,
      "lng": 118.321312,
      "rating": 4.0,
      "campus": "翔安",
      "address": "沙美中路与沙美西路交叉口西北约120米",
      "tel": [],
      "nearest_node": "N186"
    },
    {
      "id": "P093",
      "name": "ours 7号楼",
      "type": "Building",
      "lat": 24.612055,
      "lng": 118.322162,
      "rating": 4.0,
      "campus": "翔安",
      "address": "沙美鹊峰北里109号",
      "tel": [],
      "nearest_node": "N187"
    },
    {
      "id": "P094",
      "name": "新店镇便民服务中心沙美片区服务站",
      "type": "Building",
      "lat": 24.609247,
      "lng": 118.320675,
      "rating": 2.6,
      "campus": "翔安",
      "address": "美善路与沙美西路交叉口西120米",
      "tel": [],
      "nearest_node": "N188"
    },
    {
      "id": "P095",
      "name": "大学社区党群服务中心",
      "type": "Building",
      "lat": 24.609063,
      "lng": 118.320781,
      "rating": 4.0,
      "campus": "翔安",
      "address": "香山街道大学社区沙美鹊峰南里301-203号",
      "tel": [],
      "nearest_node": "N189"
    },
    {
      "id": "P096",
      "name": "遇见学生公寓",
      "type": "Building",
      "lat": 24.611675,
      "lng": 118.323075,
      "rating": 4.0,
      "campus": "翔安",
      "address": "沙美西路与美善路交叉口东北240米",
      "tel": [],
      "nearest_node": "N190"
    },
    {
      "id": "P097",
      "name": "厦门阳光公寓",
      "type": "Building",
      "lat": 24.608644,
      "lng": 118.322074,
      "rating": 4.5,
      "campus": "翔安",
      "address": "新店镇香山街道沙美社区鹊峰南里193-101号",
      "tel": "18559762287",
      "nearest_node": "N191"
    },
    {
      "id": "P098",
      "name": "夏之星公寓(厦门大学店)",
      "type": "Building",
      "lat": 24.609141,
      "lng": 118.322145,
      "rating": 4.7,
      "campus": "翔安",
      "address": "新店镇沙美村鹊峰南里280号",
      "tel": "18030009082;18030099661",
      "nearest_node": "N192"
    },
    {
      "id": "P099",
      "name": "夏之星公寓之一",
      "type": "Building",
      "lat": 24.60917,
      "lng": 118.322169,
      "rating": 4.0,
      "campus": "翔安",
      "address": "沙美村鹊峰南里280号",
      "tel": "18030009082",
      "nearest_node": "N193"
    },
    {
      "id": "P100",
      "name": "乡居公寓",
      "type": "Building",
      "lat": 24.608878,
      "lng": 118.322364,
      "rating": 4.0,
      "campus": "翔安",
      "address": "沙美西路与沙美中路交叉口北140米",
      "tel": "13850051559",
      "nearest_node": "N194"
    },
    {
      "id": "P101",
      "name": "雅居公寓",
      "type": "Building",
      "lat": 24.609423,
      "lng": 118.32251,
      "rating": 4.0,
      "campus": "翔安",
      "address": "福建省厦门市翔安区沙美鹊峰南路58号",
      "tel": [],
      "nearest_node": "N195"
    },
    {
      "id": "P102",
      "name": "岩清公寓",
      "type": "Building",
      "lat": 24.608686,
      "lng": 118.322713,
      "rating": 4.0,
      "campus": "翔安",
      "address": "香山街道沙美社区鹊峰南里202号",
      "tel": "13695027139;13950034185",
      "nearest_node": "N196"
    },
    {
      "id": "P103",
      "name": "好友公寓",
      "type": "Building",
      "lat": 24.609243,
      "lng": 118.322823,
      "rating": 4.0,
      "campus": "翔安",
      "address": "沙美村鹊峰南里45号",
      "tel": "15396245516",
      "nearest_node": "N197"
    },
    {
      "id": "P104",
      "name": "研旅公寓·新房招租",
      "type": "Building",
      "lat": 24.608871,
      "lng": 118.322884,
      "rating": 4.0,
      "campus": "翔安",
      "address": "沙美西路与美善路交叉口东南120米",
      "tel": "18050063763",
      "nearest_node": "N198"
    },
    {
      "id": "P105",
      "name": "厦门栋梁公寓",
      "type": "Building",
      "lat": 24.609026,
      "lng": 118.323183,
      "rating": 4.0,
      "campus": "翔安",
      "address": "沙美西路与美善路交叉口东140米",
      "tel": "0592-7167022",
      "nearest_node": "N199"
    },
    {
      "id": "P106",
      "name": "天成公寓住宿(厦门大学翔安校区店)",
      "type": "Building",
      "lat": 24.609531,
      "lng": 118.323455,
      "rating": 4.0,
      "campus": "翔安",
      "address": "沙美西路与美善路交叉口东160米",
      "tel": [],
      "nearest_node": "N200"
    },
    {
      "id": "P107",
      "name": "鑫寓公寓",
      "type": "Building",
      "lat": 24.609542,
      "lng": 118.323956,
      "rating": 4.0,
      "campus": "翔安",
      "address": "香山街道沙美鹊峰南里21号",
      "tel": [],
      "nearest_node": "N201"
    },
    {
      "id": "P108",
      "name": "厦大缘公寓(翔安厦大店)",
      "type": "Building",
      "lat": 24.609351,
      "lng": 118.324154,
      "rating": 4.5,
      "campus": "翔安",
      "address": "香山街道沙美社区鹊峰南里19号",
      "tel": "13600930614",
      "nearest_node": "N202"
    },
    {
      "id": "P109",
      "name": "ours公寓",
      "type": "Building",
      "lat": 24.612032,
      "lng": 118.323463,
      "rating": 4.0,
      "campus": "翔安",
      "address": "沙美西路与美善路交叉口东北300米",
      "tel": [],
      "nearest_node": "N203"
    },
    {
      "id": "P110",
      "name": "初厦精品公寓",
      "type": "Building",
      "lat": 24.608852,
      "lng": 118.324771,
      "rating": 4.9,
      "campus": "翔安",
      "address": "香山街道沙美鹊峰南里97号",
      "tel": "13074811262;13860464454",
      "nearest_node": "N204"
    },
    {
      "id": "P111",
      "name": "新雅居公寓",
      "type": "Building",
      "lat": 24.610526,
      "lng": 118.324512,
      "rating": 4.0,
      "campus": "翔安",
      "address": "厦门市翔安区沙美鹊峰南里107号",
      "tel": [],
      "nearest_node": "N205"
    },
    {
      "id": "P112",
      "name": "翔美公寓",
      "type": "Building",
      "lat": 24.612789,
      "lng": 118.323176,
      "rating": 4.0,
      "campus": "翔安",
      "address": "沙美西路与美善路交叉口东北360米",
      "tel": "0592-7089280",
      "nearest_node": "N206"
    },
    {
      "id": "P113",
      "name": "厦门九屿公寓民宿",
      "type": "Building",
      "lat": 24.61001,
      "lng": 118.325195,
      "rating": 4.7,
      "campus": "翔安",
      "address": "香山街道沙美村鹊峰南里118附1栋101号",
      "tel": "13328398636",
      "nearest_node": "N207"
    },
    {
      "id": "P114",
      "name": "随寓而安公寓",
      "type": "Building",
      "lat": 24.613641,
      "lng": 118.323413,
      "rating": 4.0,
      "campus": "翔安",
      "address": "香山街道沙美社区鹊峰北里37号",
      "tel": "18060982111",
      "nearest_node": "N208"
    },
    {
      "id": "P115",
      "name": "王子公寓",
      "type": "Building",
      "lat": 24.613674,
      "lng": 118.323633,
      "rating": 4.0,
      "campus": "翔安",
      "address": "新店镇沙美村鹊峰北里40-2",
      "tel": [],
      "nearest_node": "N209"
    },
    {
      "id": "P116",
      "name": "佳家公寓",
      "type": "Building",
      "lat": 24.613798,
      "lng": 118.324128,
      "rating": 4.0,
      "campus": "翔安",
      "address": "沙美社区",
      "tel": [],
      "nearest_node": "N210"
    },
    {
      "id": "P117",
      "name": "乡悦时光公寓",
      "type": "Building",
      "lat": 24.612781,
      "lng": 118.325026,
      "rating": 4.0,
      "campus": "翔安",
      "address": "鹊峰西里10号-1",
      "tel": "18150077033",
      "nearest_node": "N211"
    },
    {
      "id": "P118",
      "name": "厦门榕畔公寓",
      "type": "Building",
      "lat": 24.610656,
      "lng": 118.326099,
      "rating": 4.5,
      "campus": "翔安",
      "address": "香山街道沙美鹊峰南里147号",
      "tel": "13159298169;18965112859",
      "nearest_node": "N212"
    },
    {
      "id": "P119",
      "name": "167公寓",
      "type": "Building",
      "lat": 24.610425,
      "lng": 118.326287,
      "rating": 4.0,
      "campus": "翔安",
      "address": "沙美社区鹊峰南里167号",
      "tel": "13606933787",
      "nearest_node": "N213"
    },
    {
      "id": "P120",
      "name": "小仙公寓",
      "type": "Building",
      "lat": 24.61281,
      "lng": 118.325201,
      "rating": 4.0,
      "campus": "翔安",
      "address": "沙美鹊峰东里45-1",
      "tel": [],
      "nearest_node": "N214"
    },
    {
      "id": "P121",
      "name": "鹏程公寓",
      "type": "Building",
      "lat": 24.614028,
      "lng": 118.32442,
      "rating": 4.0,
      "campus": "翔安",
      "address": "沙美路与411县道交叉口西南420米",
      "tel": [],
      "nearest_node": "N215"
    },
    {
      "id": "P122",
      "name": "二七七公寓",
      "type": "Building",
      "lat": 24.610179,
      "lng": 118.326605,
      "rating": 4.0,
      "campus": "翔安",
      "address": "沙美鹊峰南里277号",
      "tel": [],
      "nearest_node": "N216"
    },
    {
      "id": "P123",
      "name": "44号公寓",
      "type": "Building",
      "lat": 24.613032,
      "lng": 118.325483,
      "rating": 4.0,
      "campus": "翔安",
      "address": "411县道与运输通道交叉口西北400米",
      "tel": [],
      "nearest_node": "N217"
    },
    {
      "id": "P124",
      "name": "吉翔公寓(沙美村)",
      "type": "Building",
      "lat": 24.612535,
      "lng": 118.32621,
      "rating": 4.0,
      "campus": "翔安",
      "address": "香山街道沙美村鹊峰东里20号",
      "tel": [],
      "nearest_node": "N218"
    },
    {
      "id": "P125",
      "name": "厦门大学思明校区东苑餐厅",
      "type": "Canteen",
      "lat": 24.436082,
      "lng": 118.10209,
      "rating": 4.4,
      "campus": "思明",
      "address": "思明南路422号厦门大学内",
      "tel": [],
      "nearest_node": "N001"
    },
    {
      "id": "P126",
      "name": "厦门大学思明校区芙蓉餐厅",
      "type": "Canteen",
      "lat": 24.435738,
      "lng": 118.10225,
      "rating": 4.5,
      "campus": "思明",
      "address": "思明南路422号厦门大学",
      "tel": "0592-2185985",
      "nearest_node": "N002"
    },
    {
      "id": "P127",
      "name": "幸运咖(厦门大学思明校区店)",
      "type": "Canteen",
      "lat": 24.435641,
      "lng": 118.102195,
      "rating": 4.0,
      "campus": "思明",
      "address": "思明南路422号厦门大学芙蓉餐厅1层",
      "tel": "13400864727",
      "nearest_node": "N003"
    },
    {
      "id": "P128",
      "name": "钟明英·妈妈的烤包(厦大店)",
      "type": "Canteen",
      "lat": 24.435368,
      "lng": 118.101659,
      "rating": 3.9,
      "campus": "思明",
      "address": "厦大芙蓉5-7-1号",
      "tel": "18159280065",
      "nearest_node": "N004"
    },
    {
      "id": "P129",
      "name": "古茗(厦大芙蓉餐厅店)",
      "type": "Canteen",
      "lat": 24.435352,
      "lng": 118.101602,
      "rating": 4.3,
      "campus": "思明",
      "address": "厦门大学(思明校区)芙蓉5-7-2",
      "tel": "15980775767",
      "nearest_node": "N005"
    },
    {
      "id": "P130",
      "name": "库迪咖啡(厦门大学思明校区店)",
      "type": "Café",
      "lat": 24.435351,
      "lng": 118.101902,
      "rating": 4.1,
      "campus": "思明",
      "address": "思明南路422号底商(中国移动西侧)",
      "tel": "18059807657",
      "nearest_node": "N006"
    },
    {
      "id": "P131",
      "name": "1921Cafe",
      "type": "Café",
      "lat": 24.436125,
      "lng": 118.102575,
      "rating": 4.3,
      "campus": "思明",
      "address": "厦门大学芙蓉13-1",
      "tel": "18144121921",
      "nearest_node": "N007"
    },
    {
      "id": "P132",
      "name": "厦大会务服务中心",
      "type": "Building",
      "lat": 24.435654,
      "lng": 118.103106,
      "rating": 3.8,
      "campus": "思明",
      "address": "思明南路422号厦门大学芙蓉16-2号",
      "tel": "0592-2186271",
      "nearest_node": "N008"
    },
    {
      "id": "P133",
      "name": "厦门大学芙蓉惜夕湾隧道咖啡厅",
      "type": "Café",
      "lat": 24.435453,
      "lng": 118.10322,
      "rating": 4.4,
      "campus": "思明",
      "address": "思明南路422号厦门大学(思明校区)",
      "tel": [],
      "nearest_node": "N009"
    },
    {
      "id": "P134",
      "name": "赶海茶汐(厦大店)",
      "type": "Café",
      "lat": 24.435821,
      "lng": 118.09997,
      "rating": 4.3,
      "campus": "思明",
      "address": "厦大芙蓉1-2-101号",
      "tel": "13306051572",
      "nearest_node": "N010"
    },
    {
      "id": "P135",
      "name": "顺丰速运(南光餐厅店)",
      "type": "Canteen",
      "lat": 24.434668,
      "lng": 118.100309,
      "rating": 4.2,
      "campus": "思明",
      "address": "鹭江街道南光路10-210-2",
      "tel": "15859265841",
      "nearest_node": "N011"
    },
    {
      "id": "P136",
      "name": "厦门大学思明校区南光餐厅",
      "type": "Canteen",
      "lat": 24.435021,
      "lng": 118.099579,
      "rating": 4.6,
      "campus": "思明",
      "address": "思明南路422号厦门大学",
      "tel": [],
      "nearest_node": "N012"
    },
    {
      "id": "P137",
      "name": "热氣饼店(厦门大学店)",
      "type": "Canteen",
      "lat": 24.434377,
      "lng": 118.099993,
      "rating": 3.9,
      "campus": "思明",
      "address": "南光路12号103蔡清洁楼711便利店旁",
      "tel": "17720885453",
      "nearest_node": "N013"
    },
    {
      "id": "P138",
      "name": "厦门大学勤业烘焙坊",
      "type": "Canteen",
      "lat": 24.438175,
      "lng": 118.100525,
      "rating": 3.6,
      "campus": "思明",
      "address": "厦门大学勤业食堂1层",
      "tel": [],
      "nearest_node": "N014"
    },
    {
      "id": "P139",
      "name": "厦门大学思明校区石井学生公寓",
      "type": "Building",
      "lat": 24.434487,
      "lng": 118.103661,
      "rating": 4.0,
      "campus": "思明",
      "address": "思明南路422号厦门大学",
      "tel": [],
      "nearest_node": "N015"
    },
    {
      "id": "P140",
      "name": "厦门大学思明校区勤业餐厅",
      "type": "Canteen",
      "lat": 24.438151,
      "lng": 118.100286,
      "rating": 4.6,
      "campus": "思明",
      "address": "思明南路422号",
      "tel": [],
      "nearest_node": "N016"
    },
    {
      "id": "P141",
      "name": "肯德基(南光路店)",
      "type": "Canteen",
      "lat": 24.43423,
      "lng": 118.099919,
      "rating": 4.4,
      "campus": "思明",
      "address": "南光路12号",
      "tel": "0592-3670808",
      "nearest_node": "N017"
    },
    {
      "id": "P142",
      "name": "厦门大学敬贤教工宿舍6号楼",
      "type": "Building",
      "lat": 24.438257,
      "lng": 118.10014,
      "rating": 4.0,
      "campus": "思明",
      "address": "思明南路422号厦门大学(思明校区)",
      "tel": [],
      "nearest_node": "N018"
    },
    {
      "id": "P143",
      "name": "瑞幸咖啡(厦门大学南门白城沙滩店)",
      "type": "Café",
      "lat": 24.433149,
      "lng": 118.102446,
      "rating": 4.4,
      "campus": "思明",
      "address": "厦大白城路7-1号103号夏商超市一楼",
      "tel": "4000100100",
      "nearest_node": "N019"
    },
    {
      "id": "P144",
      "name": "厦门大学国际学术交流中心中餐厅",
      "type": "Canteen",
      "lat": 24.438323,
      "lng": 118.098663,
      "rating": 4.0,
      "campus": "思明",
      "address": "思明南路422号厦门大学",
      "tel": [],
      "nearest_node": "N020"
    },
    {
      "id": "P145",
      "name": "库迪咖啡(厦门大学思明校区逸夫楼店)",
      "type": "Café",
      "lat": 24.438275,
      "lng": 118.098525,
      "rating": 4.3,
      "campus": "思明",
      "address": "思明南路422号厦门大学国际学术交流中心一楼2-101号",
      "tel": "17850508850;18559311380",
      "nearest_node": "N021"
    },
    {
      "id": "P146",
      "name": "厦门大学接待服务中心咖啡厅",
      "type": "Café",
      "lat": 24.438361,
      "lng": 118.098572,
      "rating": 3.6,
      "campus": "思明",
      "address": "思明南路422号厦门大学",
      "tel": [],
      "nearest_node": "N022"
    },
    {
      "id": "P147",
      "name": "厦门大学思明校区凌云学生公寓",
      "type": "Building",
      "lat": 24.439797,
      "lng": 118.101812,
      "rating": 4.0,
      "campus": "思明",
      "address": "思明南路422号厦门大学内",
      "tel": [],
      "nearest_node": "N023"
    },
    {
      "id": "P148",
      "name": "科艺咖啡厅",
      "type": "Café",
      "lat": 24.435892,
      "lng": 118.09755,
      "rating": 4.3,
      "campus": "思明",
      "address": "厦门大学国际学术交流中心恩明楼1楼(近芙蓉湖)",
      "tel": [],
      "nearest_node": "N024"
    },
    {
      "id": "P149",
      "name": "厦门大学思明校区丰庭学生公寓",
      "type": "Building",
      "lat": 24.438971,
      "lng": 118.098882,
      "rating": 4.0,
      "campus": "思明",
      "address": "思明南路422号厦门大学内",
      "tel": [],
      "nearest_node": "N025"
    },
    {
      "id": "P150",
      "name": "厦门大学思明校区海滨博士后公寓",
      "type": "Building",
      "lat": 24.433889,
      "lng": 118.105615,
      "rating": 4.0,
      "campus": "思明",
      "address": "海滨路15-之1号附近",
      "tel": [],
      "nearest_node": "N026"
    },
    {
      "id": "P151",
      "name": "厦门大学休闲茶座",
      "type": "Café",
      "lat": 24.437188,
      "lng": 118.106134,
      "rating": 3.7,
      "campus": "思明",
      "address": "思明南路422号厦门大学内",
      "tel": [],
      "nearest_node": "N027"
    },
    {
      "id": "P152",
      "name": "名创优品(福建厦门大学中心店)",
      "type": "Building",
      "lat": 24.435211,
      "lng": 118.096126,
      "rating": 4.2,
      "campus": "思明",
      "address": "大学路333号厦门大学访客中心B2层B133",
      "tel": [],
      "nearest_node": "N028"
    },
    {
      "id": "P153",
      "name": "厦门大学思明校区海滨食堂",
      "type": "Canteen",
      "lat": 24.432239,
      "lng": 118.106511,
      "rating": 4.4,
      "campus": "思明",
      "address": "思明南路422号",
      "tel": "0592-2187766;15160069341",
      "nearest_node": "N029"
    },
    {
      "id": "P154",
      "name": "luckin coffee 瑞幸咖啡(曾厝垵店)",
      "type": "Café",
      "lat": 24.43111,
      "lng": 118.105059,
      "rating": 4.4,
      "campus": "思明",
      "address": "曾厝垵社2-17号曾厝垵大门侧底商",
      "tel": [],
      "nearest_node": "N030"
    },
    {
      "id": "P155",
      "name": "蛙喔牛蛙·烧烤·烤鱼(厦大访客中心蛙喔)",
      "type": "Canteen",
      "lat": 24.434675,
      "lng": 118.095325,
      "rating": 3.9,
      "campus": "思明",
      "address": "大学路333号厦门大学访客中心第B2层B1115室",
      "tel": "0592-2222802",
      "nearest_node": "N031"
    },
    {
      "id": "P156",
      "name": "1点点(海洋新村店)",
      "type": "Canteen",
      "lat": 24.434575,
      "lng": 118.095275,
      "rating": 4.2,
      "campus": "思明",
      "address": "大学路180号",
      "tel": [],
      "nearest_node": "N032"
    },
    {
      "id": "P157",
      "name": "蒙自源米线大王(厦大访客中心店)",
      "type": "Canteen",
      "lat": 24.434575,
      "lng": 118.095275,
      "rating": 3.8,
      "campus": "思明",
      "address": "大学路333号B1012室",
      "tel": "13328519209",
      "nearest_node": "N032"
    },
    {
      "id": "P158",
      "name": "我有我味(厦大店)",
      "type": "Canteen",
      "lat": 24.434592,
      "lng": 118.095253,
      "rating": 3.8,
      "campus": "思明",
      "address": "大学路333号B1010室",
      "tel": "18059232217",
      "nearest_node": "N032"
    },
    {
      "id": "P159",
      "name": "南普陀素面馆",
      "type": "Canteen",
      "lat": 24.440931,
      "lng": 118.097701,
      "rating": 4.5,
      "campus": "思明",
      "address": "思明南路515号南普陀寺内(东侧)",
      "tel": "0592-2085908;0592-2087281;13666082769",
      "nearest_node": "N033"
    },
    {
      "id": "P160",
      "name": "陶郷台式小火锅(厦门大学访客中心店)",
      "type": "Canteen",
      "lat": 24.434532,
      "lng": 118.095253,
      "rating": 3.8,
      "campus": "思明",
      "address": "博学路与大学路交叉口北80米",
      "tel": "18859271775",
      "nearest_node": "N034"
    },
    {
      "id": "P161",
      "name": "菩提茶饮",
      "type": "Café",
      "lat": 24.440951,
      "lng": 118.097683,
      "rating": 3.2,
      "campus": "思明",
      "address": "思明南路515号南普陀寺内(东侧)",
      "tel": [],
      "nearest_node": "N035"
    },
    {
      "id": "P162",
      "name": "枝稻小食堂",
      "type": "Canteen",
      "lat": 24.436158,
      "lng": 118.094946,
      "rating": 4.4,
      "campus": "思明",
      "address": "大学路333号厦门大学访客中心B2层B1136室",
      "tel": "15860733376",
      "nearest_node": "N036"
    },
    {
      "id": "P163",
      "name": "茶山派(厦大访客中心店)",
      "type": "Café",
      "lat": 24.434925,
      "lng": 118.094857,
      "rating": 4.3,
      "campus": "思明",
      "address": "大学路厦大访客中心B1029(星巴克对面)",
      "tel": [],
      "nearest_node": "N037"
    },
    {
      "id": "P164",
      "name": "阁客下饭小火锅",
      "type": "Canteen",
      "lat": 24.43432,
      "lng": 118.094942,
      "rating": 3.9,
      "campus": "思明",
      "address": "厦大访客中心内",
      "tel": "13799788583",
      "nearest_node": "N038"
    },
    {
      "id": "P165",
      "name": "厦大美食城",
      "type": "Canteen",
      "lat": 24.434278,
      "lng": 118.094881,
      "rating": 4.4,
      "campus": "思明",
      "address": "大学路333号B1152室",
      "tel": "13915249849",
      "nearest_node": "N038"
    },
    {
      "id": "P166",
      "name": "DQ(厦门大学访客中心店)",
      "type": "Canteen",
      "lat": 24.434321,
      "lng": 118.094795,
      "rating": 4.3,
      "campus": "思明",
      "address": "大学路333号B1001室",
      "tel": "0592-5165857;18060019097;4009951877",
      "nearest_node": "N039"
    },
    {
      "id": "P167",
      "name": "麦当劳(思明校区厦门大学店)",
      "type": "Canteen",
      "lat": 24.434343,
      "lng": 118.094778,
      "rating": 4.4,
      "campus": "思明",
      "address": "大学路337号",
      "tel": [],
      "nearest_node": "N039"
    },
    {
      "id": "P168",
      "name": "八合里潮汕鲜牛肉火锅(厦大店)",
      "type": "Canteen",
      "lat": 24.434548,
      "lng": 118.094689,
      "rating": 4.5,
      "campus": "思明",
      "address": "大学路333号B1109室",
      "tel": "0592-5117899",
      "nearest_node": "N040"
    },
    {
      "id": "P169",
      "name": "茶百道(厦门大学访客中心店)",
      "type": "Café",
      "lat": 24.434575,
      "lng": 118.094675,
      "rating": 4.2,
      "campus": "思明",
      "address": "大学路333号厦大访客中心B2层162商铺",
      "tel": "17382984676",
      "nearest_node": "N041"
    },
    {
      "id": "P170",
      "name": "星巴克臻选(厦门厦大访客中心分店)",
      "type": "Café",
      "lat": 24.434954,
      "lng": 118.0945,
      "rating": 4.4,
      "campus": "思明",
      "address": "思明南路422号厦门大学访客中心B2层B126-127号商铺",
      "tel": "0592-3500831",
      "nearest_node": "N042"
    },
    {
      "id": "P171",
      "name": "朴太院·烤肉万岁(厦大访客中心店)",
      "type": "Canteen",
      "lat": 24.434959,
      "lng": 118.094495,
      "rating": 4.0,
      "campus": "思明",
      "address": "大学路333号厦大访客中心负二层B1138",
      "tel": [],
      "nearest_node": "N042"
    },
    {
      "id": "P172",
      "name": "雷姐老厦门特色小吃店",
      "type": "Canteen",
      "lat": 24.436125,
      "lng": 118.094375,
      "rating": 4.1,
      "campus": "思明",
      "address": "大学路333号厦大访客中心1056-1057室",
      "tel": "15080316768",
      "nearest_node": "N043"
    },
    {
      "id": "P173",
      "name": "库迪咖啡(厦大学术交流中心店)",
      "type": "Café",
      "lat": 24.439837,
      "lng": 118.095545,
      "rating": 3.6,
      "campus": "思明",
      "address": "思明南路422号厦门大学博学路2-101号之二",
      "tel": "17850508850",
      "nearest_node": "N044"
    },
    {
      "id": "P174",
      "name": "南普陀寺-斋堂",
      "type": "Canteen",
      "lat": 24.440991,
      "lng": 118.096567,
      "rating": 3.9,
      "campus": "思明",
      "address": "思明南路515号南普陀寺",
      "tel": [],
      "nearest_node": "N045"
    },
    {
      "id": "P175",
      "name": "金记广味烧腊店(厦大店)",
      "type": "Canteen",
      "lat": 24.434525,
      "lng": 118.094425,
      "rating": 4.1,
      "campus": "思明",
      "address": "大学路与博学路交叉口西北100米",
      "tel": [],
      "nearest_node": "N046"
    },
    {
      "id": "P176",
      "name": "鑫鑫落日海景海鲜餐厅(胡里山炮台地标店)",
      "type": "Canteen",
      "lat": 24.430225,
      "lng": 118.105575,
      "rating": 4.4,
      "campus": "思明",
      "address": "曾厝垵路2号胡里山炮台(西北角)",
      "tel": "14700098356",
      "nearest_node": "N047"
    },
    {
      "id": "P177",
      "name": "Sea U海云咖啡厅",
      "type": "Café",
      "lat": 24.430074,
      "lng": 118.105488,
      "rating": 4.7,
      "campus": "思明",
      "address": "环岛南路256-2号",
      "tel": "13163901914",
      "nearest_node": "N048"
    },
    {
      "id": "P178",
      "name": "台湾美食城",
      "type": "Canteen",
      "lat": 24.429988,
      "lng": 118.105529,
      "rating": 3.6,
      "campus": "思明",
      "address": "曾厝垵路2号胡里山炮台(西北角)",
      "tel": [],
      "nearest_node": "N049"
    },
    {
      "id": "P179",
      "name": "想木目心墨西哥餐厅",
      "type": "Canteen",
      "lat": 24.435931,
      "lng": 118.093939,
      "rating": 4.1,
      "campus": "思明",
      "address": "大学路333号B1168室(厦大访客中心店)",
      "tel": "0592-2564128;15359341505",
      "nearest_node": "N050"
    },
    {
      "id": "P180",
      "name": "超吉丼饭",
      "type": "Canteen",
      "lat": 24.436159,
      "lng": 118.09383,
      "rating": 4.2,
      "campus": "思明",
      "address": "大学路333号B1163室",
      "tel": "18106937813",
      "nearest_node": "N051"
    },
    {
      "id": "P181",
      "name": "瑞幸咖啡(厦门大学西门演武1658店)",
      "type": "Café",
      "lat": 24.437916,
      "lng": 118.093127,
      "rating": 4.4,
      "campus": "思明",
      "address": "演武路4-111号",
      "tel": "4000100100",
      "nearest_node": "N052"
    },
    {
      "id": "P182",
      "name": "邮局咖啡(厦大店)",
      "type": "Café",
      "lat": 24.439398,
      "lng": 118.092884,
      "rating": 4.3,
      "campus": "思明",
      "address": "顶澳仔12-103号",
      "tel": "15359028846",
      "nearest_node": "N053"
    },
    {
      "id": "P183",
      "name": "南华柒号",
      "type": "Café",
      "lat": 24.440565,
      "lng": 118.093148,
      "rating": 4.3,
      "campus": "思明",
      "address": "南华路7-2号(两园必胜客斜对面)",
      "tel": "17605070369",
      "nearest_node": "N054"
    },
    {
      "id": "P184",
      "name": "小山椿下",
      "type": "Café",
      "lat": 24.440293,
      "lng": 118.092777,
      "rating": 4.4,
      "campus": "思明",
      "address": "南华路9号",
      "tel": "18505921441",
      "nearest_node": "N055"
    },
    {
      "id": "P185",
      "name": "几朵咖啡",
      "type": "Café",
      "lat": 24.427889,
      "lng": 118.10697,
      "rating": 4.7,
      "campus": "思明",
      "address": "环岛南路264号",
      "tel": "18106904385",
      "nearest_node": "N056"
    },
    {
      "id": "P186",
      "name": "SAMPLE(厦大店)",
      "type": "Café",
      "lat": 24.437287,
      "lng": 118.091074,
      "rating": 4.1,
      "campus": "思明",
      "address": "下澳仔34-104号",
      "tel": "15359331687",
      "nearest_node": "N057"
    },
    {
      "id": "P187",
      "name": "岚画里Coffee",
      "type": "Café",
      "lat": 24.442733,
      "lng": 118.093248,
      "rating": 3.7,
      "campus": "思明",
      "address": "南普陀路与南华路交叉口北140米",
      "tel": "17728940102",
      "nearest_node": "N058"
    },
    {
      "id": "P188",
      "name": "拥木咖啡(万石植物园店)",
      "type": "Café",
      "lat": 24.446735,
      "lng": 118.101041,
      "rating": 4.2,
      "campus": "思明",
      "address": "开元街道虎园路25号(万石山风景区内)",
      "tel": "13850573339",
      "nearest_node": "N059"
    },
    {
      "id": "P189",
      "name": "库迪咖啡(沙坡尾大学路店)",
      "type": "Café",
      "lat": 24.436484,
      "lng": 118.089844,
      "rating": 4.1,
      "campus": "思明",
      "address": "大学路162-118号沿街商铺",
      "tel": "13806075850",
      "nearest_node": "N060"
    },
    {
      "id": "P190",
      "name": "自由灵魂咖啡·日咖夜酒",
      "type": "Café",
      "lat": 24.436451,
      "lng": 118.113759,
      "rating": 4.1,
      "campus": "思明",
      "address": "曾厝埯西里183-1-101",
      "tel": "13838114141",
      "nearest_node": "N061"
    },
    {
      "id": "P191",
      "name": "若小猫咖啡馆",
      "type": "Café",
      "lat": 24.436428,
      "lng": 118.113973,
      "rating": 4.5,
      "campus": "思明",
      "address": "曾厝垵西里183号",
      "tel": "18959228710",
      "nearest_node": "N062"
    },
    {
      "id": "P192",
      "name": "瑞幸咖啡(世茂海峡店)",
      "type": "Café",
      "lat": 24.435347,
      "lng": 118.089306,
      "rating": 4.3,
      "campus": "思明",
      "address": "演武西路182号世茂海峡大厦B塔一层大堂",
      "tel": "4000100100",
      "nearest_node": "N063"
    },
    {
      "id": "P193",
      "name": "Manner Coffee(厦门海峡世茂广场店)",
      "type": "Café",
      "lat": 24.435562,
      "lng": 118.08915,
      "rating": 4.1,
      "campus": "思明",
      "address": "演武西路185号一楼",
      "tel": [],
      "nearest_node": "N064"
    },
    {
      "id": "P194",
      "name": "瑞幸咖啡(厦门双子塔大师店)",
      "type": "Café",
      "lat": 24.436177,
      "lng": 118.089082,
      "rating": 4.4,
      "campus": "思明",
      "address": "演武西路183号世茂双子塔沿街底商106号",
      "tel": "4000100100",
      "nearest_node": "N065"
    },
    {
      "id": "P195",
      "name": "lanlancafe(海洋花园店)",
      "type": "Café",
      "lat": 24.441183,
      "lng": 118.090344,
      "rating": 4.0,
      "campus": "思明",
      "address": "思明南路392-101号",
      "tel": "13003900687",
      "nearest_node": "N066"
    },
    {
      "id": "P196",
      "name": "猫住咖啡·猫咖(大学路店)",
      "type": "Café",
      "lat": 24.436916,
      "lng": 118.088992,
      "rating": 4.3,
      "campus": "思明",
      "address": "大学路160号之105(山海花园,近世茂双子塔)",
      "tel": "19942715826",
      "nearest_node": "N067"
    },
    {
      "id": "P197",
      "name": "Le Cafe Mião猫咖·肥猫俱乐部(沙坡尾店)",
      "type": "Canteen",
      "lat": 24.437996,
      "lng": 118.089054,
      "rating": 4.3,
      "campus": "思明",
      "address": "大学路129号(看见见福便利店右拐巷子进来)",
      "tel": "18850158200",
      "nearest_node": "N068"
    },
    {
      "id": "P198",
      "name": "星巴克(厦门演武路分店)",
      "type": "Café",
      "lat": 24.435975,
      "lng": 118.088775,
      "rating": 4.6,
      "campus": "思明",
      "address": "演武西路182号厦门世茂海峡大厦第一层的101单元",
      "tel": "0592-2087611",
      "nearest_node": "N069"
    },
    {
      "id": "P199",
      "name": "赵小姐的店(沙坡尾店)",
      "type": "Café",
      "lat": 24.438075,
      "lng": 118.088928,
      "rating": 4.3,
      "campus": "思明",
      "address": "沙坡尾大学路129号",
      "tel": "0592-5210870",
      "nearest_node": "N070"
    },
    {
      "id": "P200",
      "name": "和猫说海景猫咖馆",
      "type": "Café",
      "lat": 24.435987,
      "lng": 118.088597,
      "rating": 4.2,
      "campus": "思明",
      "address": "世茂双子塔A座4508室",
      "tel": [],
      "nearest_node": "N071"
    },
    {
      "id": "P201",
      "name": "天空餐厅(世茂Emall店)",
      "type": "Café",
      "lat": 24.436114,
      "lng": 118.088357,
      "rating": 4.3,
      "campus": "思明",
      "address": "演武西路180世茂EmallF1层",
      "tel": "17750644664",
      "nearest_node": "N072"
    },
    {
      "id": "P202",
      "name": "云上简里|海景咖啡厅(双子塔店)",
      "type": "Café",
      "lat": 24.43617,
      "lng": 118.088288,
      "rating": 4.6,
      "campus": "思明",
      "address": "演武西路188号世茂海峡大厦A塔63层6302号",
      "tel": "18046300562;18046303699",
      "nearest_node": "N073"
    },
    {
      "id": "P203",
      "name": "西芙SIF TEA 高空海景下午茶·咖啡(双子塔店)",
      "type": "Café",
      "lat": 24.436231,
      "lng": 118.08825,
      "rating": 4.4,
      "campus": "思明",
      "address": "世茂Emall",
      "tel": "15710619804",
      "nearest_node": "N073"
    },
    {
      "id": "P204",
      "name": "星巴克(厦门思明软件园一期店)",
      "type": "Café",
      "lat": 24.432227,
      "lng": 118.114991,
      "rating": 4.4,
      "campus": "思明",
      "address": "曾厝埯北路1号软件园1期105-3铺位",
      "tel": "0592-2072977;4008206998",
      "nearest_node": "N074"
    },
    {
      "id": "P205",
      "name": "瑞幸咖啡(软件园一期北区店)",
      "type": "Café",
      "lat": 24.43284,
      "lng": 118.11533,
      "rating": 4.4,
      "campus": "思明",
      "address": "曾厝埯西路20号软件园一期北区1号楼元汇楼103-01单元",
      "tel": "4000100100",
      "nearest_node": "N075"
    },
    {
      "id": "P206",
      "name": "好好咖啡(曾厝垵店)",
      "type": "Café",
      "lat": 24.434124,
      "lng": 118.115681,
      "rating": 4.4,
      "campus": "思明",
      "address": "曾厝埯西里40号",
      "tel": "13599992904",
      "nearest_node": "N076"
    },
    {
      "id": "P207",
      "name": "小河马中古百货咖啡馆",
      "type": "Café",
      "lat": 24.44076,
      "lng": 118.088399,
      "rating": 4.3,
      "campus": "思明",
      "address": "蜂巢山路与民族路交叉口东北120米",
      "tel": "18506928083",
      "nearest_node": "N077"
    },
    {
      "id": "P208",
      "name": "咖飛狮(沙坡尾艺术西区店)",
      "type": "Café",
      "lat": 24.438097,
      "lng": 118.087541,
      "rating": 4.4,
      "campus": "思明",
      "address": "沙坡尾60-4号(3楼天台)",
      "tel": "18150379898",
      "nearest_node": "N078"
    },
    {
      "id": "P209",
      "name": "Nuts Coffee坚果咖啡",
      "type": "Café",
      "lat": 24.431418,
      "lng": 118.115339,
      "rating": 4.0,
      "campus": "思明",
      "address": "珍珠湾软件园创新大厦一楼",
      "tel": "0592-2511025",
      "nearest_node": "N079"
    },
    {
      "id": "P210",
      "name": "瑞幸咖啡(沙坡尾店)",
      "type": "Café",
      "lat": 24.439729,
      "lng": 118.08753,
      "rating": 4.4,
      "campus": "思明",
      "address": "大学路58号一层底商",
      "tel": "4000100100",
      "nearest_node": "N080"
    },
    {
      "id": "P211",
      "name": "NOWWA挪瓦咖啡(见福福建博物馆店)",
      "type": "Café",
      "lat": 24.442889,
      "lng": 118.088974,
      "rating": 3.9,
      "campus": "思明",
      "address": "思明南路487号107号海天广场1号楼",
      "tel": "18205908652",
      "nearest_node": "N081"
    },
    {
      "id": "P212",
      "name": "小厝里砂锅焗海鲜(厦大店)",
      "type": "Canteen",
      "lat": 24.437842,
      "lng": 118.093059,
      "rating": 4.6,
      "campus": "思明",
      "address": "演武路4号演武1658商场3楼306",
      "tel": "17720862458",
      "nearest_node": "N082"
    },
    {
      "id": "P213",
      "name": "堂宴·老厦门私房菜(厦大店)",
      "type": "Canteen",
      "lat": 24.437857,
      "lng": 118.092988,
      "rating": 4.5,
      "campus": "思明",
      "address": "演武路4号演武1658商场3楼电梯旁01号商铺",
      "tel": "0592-6023668",
      "nearest_node": "N083"
    },
    {
      "id": "P214",
      "name": "金海湾·姜母鸭·海鲜餐厅(厦门大学店)",
      "type": "Canteen",
      "lat": 24.437175,
      "lng": 118.09282,
      "rating": 4.5,
      "campus": "思明",
      "address": "厦大西村25-102号",
      "tel": "17306020196",
      "nearest_node": "N084"
    },
    {
      "id": "P215",
      "name": "回来吧特色餐厅(厦大店)",
      "type": "Canteen",
      "lat": 24.439625,
      "lng": 118.092846,
      "rating": 4.1,
      "campus": "思明",
      "address": "厦港街道厦大西村顶澳仔路47号",
      "tel": "13600971937;13646024562",
      "nearest_node": "N085"
    },
    {
      "id": "P216",
      "name": "妞妞餐厅老厦门特色菜",
      "type": "Canteen",
      "lat": 24.439037,
      "lng": 118.092386,
      "rating": 4.7,
      "campus": "思明",
      "address": "猫街顶澳仔10号之3(演武小学旁)",
      "tel": "18959288559",
      "nearest_node": "N086"
    },
    {
      "id": "P217",
      "name": "38号码头餐厅(厦门康莱德酒店)",
      "type": "Canteen",
      "lat": 24.43531,
      "lng": 118.089352,
      "rating": 4.3,
      "campus": "思明",
      "address": "演武西路186号世茂海峡大厦康莱德酒店38楼",
      "tel": "0592-2562256",
      "nearest_node": "N087"
    },
    {
      "id": "P218",
      "name": "厦门康莱德酒店鹭城轩中餐厅",
      "type": "Canteen",
      "lat": 24.435226,
      "lng": 118.089319,
      "rating": 4.2,
      "campus": "思明",
      "address": "演武西路186号世贸海峡大厦B塔",
      "tel": "0592-2561331",
      "nearest_node": "N088"
    },
    {
      "id": "P219",
      "name": "康莱德酒店·COAST海岸酒吧&餐厅",
      "type": "Canteen",
      "lat": 24.435284,
      "lng": 118.089187,
      "rating": 3.0,
      "campus": "思明",
      "address": "演武西路186号康莱德酒店54楼",
      "tel": [],
      "nearest_node": "N089"
    },
    {
      "id": "P220",
      "name": "太哼冰室(厦门世茂Emall店)",
      "type": "Canteen",
      "lat": 24.435739,
      "lng": 118.088519,
      "rating": 4.2,
      "campus": "思明",
      "address": "演武西路182号世茂Emall双子塔四楼",
      "tel": "15959259281",
      "nearest_node": "N090"
    },
    {
      "id": "P221",
      "name": "芋包嫂",
      "type": "Canteen",
      "lat": 24.438669,
      "lng": 118.088652,
      "rating": 4.5,
      "campus": "思明",
      "address": "大学路91号",
      "tel": "18950007598",
      "nearest_node": "N091"
    },
    {
      "id": "P222",
      "name": "云中庭·山海间",
      "type": "Canteen",
      "lat": 24.436158,
      "lng": 118.088344,
      "rating": 4.5,
      "campus": "思明",
      "address": "海峡世茂大厦A座6103",
      "tel": "0592-5826266",
      "nearest_node": "N073"
    },
    {
      "id": "P223",
      "name": "迦兰·泰式料理(世茂Emall店)",
      "type": "Canteen",
      "lat": 24.435575,
      "lng": 118.088347,
      "rating": 4.6,
      "campus": "思明",
      "address": "演武西路182号世茂Emall3层",
      "tel": "0592-2088002",
      "nearest_node": "N092"
    },
    {
      "id": "P224",
      "name": "食客家自选餐厅",
      "type": "Canteen",
      "lat": 24.44184,
      "lng": 118.089551,
      "rating": 4.0,
      "campus": "思明",
      "address": "思明南路与蜂巢山路交叉口南20米",
      "tel": [],
      "nearest_node": "N093"
    },
    {
      "id": "P225",
      "name": "渔家海鲜舫(蜂巢山路)",
      "type": "Canteen",
      "lat": 24.441171,
      "lng": 118.088933,
      "rating": 4.0,
      "campus": "思明",
      "address": "蜂巢山路7一101号",
      "tel": "13850093227",
      "nearest_node": "N094"
    },
    {
      "id": "P226",
      "name": "海韵一期餐厅(厦大学生公寓店)",
      "type": "Canteen",
      "lat": 24.437975,
      "lng": 118.115475,
      "rating": 4.2,
      "campus": "思明",
      "address": "曾厝埯北二路厦门大学(思明校区)",
      "tel": [],
      "nearest_node": "N095"
    },
    {
      "id": "P227",
      "name": "厦门小吃福隆餐厅沙茶面(西里小区店)",
      "type": "Café",
      "lat": 24.43375,
      "lng": 118.115523,
      "rating": 4.1,
      "campus": "思明",
      "address": "滨海街道曾厝垵西里29号101",
      "tel": "13950069932",
      "nearest_node": "N096"
    },
    {
      "id": "P228",
      "name": "海韵园餐厅(创新大厦C区店)",
      "type": "Canteen",
      "lat": 24.430492,
      "lng": 118.115,
      "rating": 4.0,
      "campus": "思明",
      "address": "软件园1期创新大厦c区1层",
      "tel": [],
      "nearest_node": "N097"
    },
    {
      "id": "P229",
      "name": "阿里元·海鲜闽菜(厦大店)(暂停营业)",
      "type": "Canteen",
      "lat": 24.437337,
      "lng": 118.087932,
      "rating": 4.1,
      "campus": "思明",
      "address": "沙坡尾60-2-101号",
      "tel": "0592-2087133",
      "nearest_node": "N098"
    },
    {
      "id": "P230",
      "name": "食光屋·深夜食堂",
      "type": "Canteen",
      "lat": 24.437008,
      "lng": 118.089611,
      "rating": 4.2,
      "campus": "思明",
      "address": "大学路205号",
      "tel": [],
      "nearest_node": "N099"
    },
    {
      "id": "P231",
      "name": "春荷小食堂",
      "type": "Canteen",
      "lat": 24.437104,
      "lng": 118.089357,
      "rating": 4.2,
      "campus": "思明",
      "address": "大学路197号",
      "tel": [],
      "nearest_node": "N100"
    },
    {
      "id": "P232",
      "name": "肉食饭堂",
      "type": "Canteen",
      "lat": 24.438235,
      "lng": 118.088965,
      "rating": 4.3,
      "campus": "思明",
      "address": "厦港街道大学路103号",
      "tel": "18905057499",
      "nearest_node": "N101"
    },
    {
      "id": "P233",
      "name": "厦门大学思明校区图书馆",
      "type": "Library",
      "lat": 24.438626,
      "lng": 118.096667,
      "rating": 4.0,
      "campus": "思明",
      "address": "思明南路422号厦门大学",
      "tel": "0592-2184879;0592-2182360;0592-2185190",
      "nearest_node": "N102"
    },
    {
      "id": "P234",
      "name": "厦门大学思明校区图书馆法学分馆",
      "type": "Library",
      "lat": 24.431846,
      "lng": 118.108027,
      "rating": 4.0,
      "campus": "思明",
      "address": "思明南路422号厦门大学",
      "tel": "0592-2182079",
      "nearest_node": "N103"
    },
    {
      "id": "P235",
      "name": "厦门大学图书馆(海韵学生公寓分馆)",
      "type": "Library",
      "lat": 24.437152,
      "lng": 118.115932,
      "rating": 4.0,
      "campus": "思明",
      "address": "曾厝垵西里105号厦大学生公寓教学楼内",
      "tel": [],
      "nearest_node": "N104"
    }
  ]
}